,venue_name,id,capacity,street,zip,latitude,longitude,metro_area
0,The Basement East,2913113,,917 Woodland Ave.,37206,36.175636,-86.755652,Nashville
1,The Basement East,4147909,545.0,917 Woodland Street,37206,36.175670000000004,-86.75558000000002,Nashville
2,The Zimmerman's Basement O' Sound,1766373,,7 Sussex Road,08816,40.4184331,-74.4322273,East Brunswick
3,The Basement East,3433549,,1245 Glenwood Avenue Southeast,30316,33.739987799999994,-84.346676,Atlanta
4,Evangeline Downs Racetrack & Casino,2371734,,2235 Creswell Lane Extension,70570,30.53353,-92.08151,Baton Rouge
5,Zappo's Theater at Planet Hollywood,3815719,4600.0,3667 S. Las Vegas Blvd.,89109,36.11006,-115.17088999999999,Las Vegas
6,Resorts World Catskills,3894369,,888 Resorts World Drive,12701,41.65715,-74.64771999999998,Monticello
7,Santander Arena,506116,,700 Penn St.,19602,40.335029999999996,-75.92339,Wilmington
8,"Eagle Theater, Santander Arena",6896,,700 Penn St.,19610,40.33514,-75.9234,Wilmington
9,The Theater at Santander Arena,3842839,,700 Penn Street,19602,40.335029999999996,-75.92339,Wilmington
10,Diamond Credit Union Theater at the Santander Arena,3768574,,700 Penn Street,19602,40.335030100000004,-75.9233893,Wilmington
11,Torrelavega Arena,1417318,,"Calle de Pando, 2",39300,43.346419299999994,-4.0459681000000005,Santander
12,Pinewood Bowl Theater,87817,,3201 S. Coddington Ave.,68522,40.7797008,-96.7494143,Lincoln
13,"Magoffin Auditorium, UTEP",7571,,Hawthorne Street,79968,31.76793,-106.50173000000001,El Paso
14,"Mississippi Moon Bar, Diamond Jo Casino",127972,,301 Bell Street,52001,42.4975,-90.65888000000001,Madison
15,Diamond Jo Casino - Dubuque,133143,,301 Bell Street,52001,42.497409999999995,-90.65907,Madison
16,The Ground,3509759,,34 NE 11th ST,33132,25.78448,-80.19314,Miami
17,The Ground at Club Space,4315809,,34 NE 11th St,33132,25.784670000000002,-80.1932,Miami
18,The Backstage at Championship Bar,1294936,,931 Chambers Street,08611,40.21156,-74.73917,Philadelphia
19,Championship Bar & Grill,173168,200.0,931 Chambers St.,08611,40.21705,-74.74294,Philadelphia
20,Little Fox Theatre,33008,,2215 Broadway St.,94063,37.486,-122.22958700000001,SF Bay Area
21,Fox Theatre,2808953,,2215 Broadway,94063,37.48633,-122.22963,SF Bay Area
22,Big Fox Theatre,2097859,2000.0,2215 Broadway,94063,37.486,-122.22958700000001,SF Bay Area
23,The Plant,3787984,,308 N St Andrews St,36303,31.227559999999997,-85.3914,Tallahassee
24,The Ford Plant,43451,,1 King St.,,43.0324313,-80.33125840000002,Brantford
25,The Plant,2263529,,,,,,Montreal
26,The Record Plant,78057,,,,,,SF Bay Area
27,The Plant,2950528,,220 Lorax Lane,27510,35.71004600000001,-79.156684,Pittsboro
28,The Plant Studios,47201,,,,,,SF Bay Area
29,The Plant,3332754,,517 W Gaines St,,30.4352911,-84.2892048,Tallahassee
30,The Plant,4078094,,Redwood Street,,-41.529109999999996,173.96157,Blenheim
31,The Plant,55678,,,,,,Los Angeles
32,The Power Plant Contemporary Art Gallery,1806678,,"231 Queens Quay W, Toronto, ON",M5J 2G8,43.638679100000004,-79.38216109999998,Toronto
33,The Plant,1643453,,1407 4th St Sw.,,35.071588,-106.654701,Albuquerque
34,The Plant Shoppe,3006879,,,,35.4675602,-97.5164276,Oklahoma City
35,The Plant,3556094,,1201 N Union St.,14760,42.093424,-78.43598,Olean
36,Plant The Seeds Initiative,4063879,,,,,,Kingston
37,The Gathering,1230091,,4815 W Sam Allen Road,33565,28.046576,-82.176487,Plant City
38,The Hood Plant,3477464,,187 S Winooski Ave,,44.4746963,-73.2109986,Burlington
39,Tin Roof - Charlotte,2374949,,210 E. Trade St.,28202,35.227309999999996,-80.84315,Charlotte
40,Ames Center,38810,,12600 Nicollet Ave.,,44.77407,-93.2795,Twin Cities
41,"Proscenium Stage, Ames Center",1047961,,,55337,44.7758378,-93.2684215,Twin Cities
42,"Stephens Auditorium, Iowa State Center",1502,,Lincoln Way & Elwood Dr.,50011,42.01978,-93.63244,Des Moines
43,"Black Box Theater, Ames Center",3030244,,,55337,44.7758378,-93.2684215,Twin Cities
44,Iowa State Center,46929,,,,,,Des Moines
45,NASA Ames Research Center,488231,,,,,,SF Bay Area
46,Baffles Bar & Event Center,3626159,,300 South 17th Street,50010,42.0062703,-93.61262359999999,Des Moines
47,Ia State Center,725276,,,,,,Des Moines
48,Stephens Center,781816,,,,,,Des Moines
49,Harvester Plaza at Iowa State Center,2660653,,Beach Avenue and Center Drive,50011,42.0195934,-93.6394539,Des Moines
50,Hansen Ag Student Learning Center,4015129,,,50011,42.02887,-93.64803,Des Moines
51,Hansen Agriculture Student Learning Center,2823418,,,50011,42.0288663,-93.6480307,Des Moines
52,Burnsville Pac/ames Center,3354339,,Proscenium Stage 12600 Nicollet  Ave,,44.77407,-93.2795,Twin Cities
53,Tin Roof - Baltimore,2701328,,32 Market Pl.,21202,39.28882,-76.60716,Baltimore
54,Cheyenne Civic Center,1204,,2101 O'Neil Ave,82001,41.13537,-104.82244,Cheyenne
55,Rushmore Plaza Civic Center,31743,,44 Mt. Rushmore Rd.,57701,44.084720000000004,-103.22969,Cheyenne
56,Rushmore Plaza Civic Center Arena,682171,,444 Mt. Rushmore Rd. North,57701,44.088448,-103.224949,Cheyenne
57,Civic Center Park,902821,,201 Laporte Ave.,80521,40.5884231,-105.07939679999998,Cheyenne
58,Laramie Plains Civic Center Theatre,1204311,,710 Garfield Street,82070,41.30977,-105.58832,Cheyenne
59,Civic Center Park Area,3346869,,North Howes and Laporte Ave,80524,40.588960799999995,-105.080684,Cheyenne
60,High Dive,1940804,400.0,210 SW 2nd Ave,32601,29.650579999999998,-82.32698,Jacksonville
61,Florida Theatre Jacksonville,732,,128 E. Forsyth St.,32202,30.32645,-81.65554,Jacksonville
62,"Lazzarra Theatre, University of North Florida",1887578,,One UNF Drive,32224,30.270668199999996,-81.5104313,Jacksonville
63,Times Union Center,496,,51 South Pearl Street,12207,42.64834000000001,-73.75395999999998,Springfield
64,"Moran Theater, Times-Union Center for the Performing Arts",6884,,300 W. Water St.,32202,30.32558,-81.66309,Jacksonville
65,"Jacoby Symphony Hall, Times-Union Center for the Performing Arts",4552,,"300 W. Water St., Suite 200",32202,30.3255836,-81.66309040000002,Jacksonville
66,"Terry Theater, Times-Union Center for the Performing Arts",7661,,300 West Water Street,32202,30.32498,-81.66239,Jacksonville
67,Times-Union Center For The Performing Arts,903,,300 West Water Street,32202,30.32558,-81.66309,Jacksonville
68,Hard Rock Live - Orlando,38516,,6050 Universal Blvd.,32819,28.4737,-81.46734000000002,Orlando
69,Shea's Performing Arts Center,1291,,646 Main St,14202,42.891690000000004,-78.8733,Buffalo
70,One Eyed Jacks,2799,300.0,615 Toulouse Street,70130,29.957032,-90.064749,New Orleans
71,One Eyed Jack's,600891,,2638 Colonel Glenn Parkway,45324,39.8208925,-84.0193789,Dayton
72,One Eyed Jacks,1517123,,2638 Colonel Glenn Hwy,,39.7779711,-84.0545785,Dayton
73,One Eyed Jacks,873566,,,,,,Kansas City
74,One Eyed Jacks,669746,,,,55.86626700000001,-3.9625660000000003,Glasgow
75,One Eyed Jack's,43460,,,,,,Los Angeles
76,One Eyed Jack's,3894799,,380 N Wantagh Ave,11714,40.7350194,-73.49538620000001,Bethpage
77,One Eyed Jack's,249351,,,,,,Cincinnati
78,The Tulalip Amphitheatre,2383,,10400 Quil Ceda Boulevard,98271,48.0940685,-122.1880209,Seattle
79,Revention Music Center,2861788,2900.0,520 Texas Ave.,77002,29.76244,-95.36718,Houston
80,40 Below - Under Revention Music Center,4224959,,,77002,29.75255,-95.3704,Houston
81,Shovelhead Live,3989544,,900 US-17,32750,28.69259000000001,-81.3283,Orlando
82,Strummer's,2349949,,833 E Fern Ave,93728,36.7588441,-119.8001805,Fresno
83,Strummer Bar,3932454,,Godoy Cruz 1631,,-34.5879076,-58.4344409,Buenos Aires
84,Strummer Camp,126760,,,,,,Manchester
85,Strummers,30288,,,,,,Pittsburgh
86,Arena Joe Strummer,2502964,,Via Stalingrado,40128,44.516114,11.3597931,Bologna
87,Strummer of Love Festival,1870508,,Culmhead,,50.936064,-3.126185,Exeter
88,Joe Strummer Club,1314421,,"Carretera De La Pinya S/n, La Vall D'en Bas",17179,42.183378499999996,2.4773897000000002,Girona
89,Joe Strummer Tribute,182478,,,,,,Granada
90,Strummer's Bar & Grill,4257504,,: 833 E Fern Ave,,36.75894,-119.8002,Fresno
91,O'Malley's Sports Bar,618256,,1388 North Sr-7,33063,26.25648,-80.20209,Fort Lauderdale
92,O'malley's Sports Bar,836601,,1388 State Road 7,33063,27.19378,-80.22851,Fort Lauderdale
93,O'Malley's Sports Bar,3117489,,1388 FL-7,33063,26.2467352,-80.20131059999999,Fort Lauderdale
94,O'malley's Sports Bar & Grill,3406554,,,28779,35.2754589,-80.7285176,Charlotte
95,Belterra Casino Resort and Spa,4012079,,,47020,38.78435,-84.92459000000002,Florence
96,9:30 Club,922,1200.0,815 V St NW,20001,38.9178658,-77.0237219,Washington
97,Jammin' Java,124690,200.0,227 Maple Ave.,22180,38.904137799999994,-77.26112590000002,Washington
98,Birchmere,32723,500.0,3701 Mt. Vernon Ave,22305,38.839858,-77.06129,Washington
99,Black Cat,1038,700.0,1811 14th Street N.w.,20009,38.91453,-77.03177,Washington
100,U Street Music Hall,839721,500.0,1115 U St NW,20001,38.917202,-77.027764,Washington
101,Walter's On Washington,430,,4215 Washington Avenue,77007,29.770232899999996,-95.403561,Houston
102,DC9 Nightclub,20843,200.0,"1940 9th Street, NW",20001,38.9166743,-77.0239493,Washington
103,Rock & Roll Hotel,10865,400.0,1353 H St. NE,20002,38.9000902,-76.98657790000001,Washington
104,The Hamilton Live,1611908,500.0,600 14th St. NW,20005,38.89749000000001,-77.03215420000002,Washington
105,Empire,1307,500.0,6355 Rolling Road,22152,38.77789,-77.23246,Washington
106,Hill Country Barbecue Market,1273986,300.0,410 Seventh St. NW,20004,38.89513,-77.02231,Washington
107,Howard Theatre,74872,1242.0,"620 T Street, NW",20001,38.91527,-77.0211,Washington
108,Washington's,3058304,,132 Laporte Ave,80524,40.58943,-105.07791999999999,Cheyenne
109,IOTA Club & Café,79176,,2832 Wilson Blvd.,22201,38.88878029999999,-77.0924464,Washington
110,Gypsy Sally's,2402744,300.0,3401 K Street NW,20007,38.902593599999996,-77.06275450000003,Washington
111,"Lisner Auditorium, George Washington University",1100,,730 21st St. N.W.,20052,38.8993,-77.04706,Washington
112,Flash,2382729,,645 Florida St NW,20001,38.916281,-77.02136899999998,Washington
113,The Fillmore Silver Spring,1448428,2000.0,8656 Colesville Road,20910,38.997479999999996,-77.02793,Washington
114,Wolf Trap,569286,,1551 Trap Road,22182,38.9365408,-77.2644698,Washington
115,The State Theatre,79584,800.0,220 N. Washington St,22046,38.88306,-77.16986999999997,Washington
116,Velvet Lounge,71329,,915 U Street NW,20001,38.917130799999995,-77.0246868,Washington
117,Sixth & I,2601,800.0,600 I St NW,20001,38.90063,-77.02026,Washington
118,The Barns at Wolf Trap,4381,,1635 Trap Road,22182,38.93255,-77.26552,Washington
119,The Washington,670926,,79 Fitzwilliam Street,S1 4JP,53.377596999999994,-1.4780634,Sheffield
120,Songbyrd Music House,3115224,,2475 18th St NW,20009,38.9224,-77.04227,Washington
121,The Washington,35059,,306 Washington,52601,40.81111,-91.10276999999999,Des Moines
122,Washington Avenue Armory,1509,,195 Washington Avenue,12210,42.65647120000001,-73.76275229999997,Springfield
123,Jiffy Lube Live,475,22500.0,7800 Cellar Door Drive,20136,38.786011,-77.587845,Washington
124,Warner Theatre,647,1900.0,1299 Pennsylvania Ave Nw,20004,38.89628,-77.02828000000002,Washington
125,Washington Square Bar & Grill,1157991,,4736 Washington Square,55110,45.0849948,-93.00903199999999,Twin Cities
126,"Vinyl Lounge, Gypsy Sally's",2728163,,3401 K Street NW,20007,38.90415,-77.0681,Washington
127,Echostage,1864683,,2135 Queens Chapel Road NE,20018,38.91980039999999,-76.9726045,Washington
128,Washington House Restaurant,1064451,,136 North Main Street,18960,40.35958,-75.31102,Philadelphia
129,DAR Constitution Hall,1095,3702.0,"1776 D Street, NW",20006,38.8936076,-77.0397162,Washington
130,Capital Centre,75736,,1 Harry S Truman Dr.,20785,38.8942174,-76.8390593,Washington
131,Union Stage,3623159,,740 Water St SW,20024,38.878659999999996,-77.02388,Washington
132,"Concert Hall, Kennedy Center",554416,,"2700 F St., NW",20566,38.89606,-77.0552,Washington
133,Lincoln Theatre,2826,,1215 U St. NW,20009,38.9174,-77.028992,Washington
134,The Music Center at Strathmore,14997,1976.0,5301 Tuckerman Lane,20852,39.0312745,-77.1027585,Washington
135,Villain & Saint,2940728,,7141 Wisconsin Ave,20814,38.98085,-77.09209,Washington
136,John F. Kennedy Center for the Performing Arts,30332,,"2700 F St., NW",20566,38.89606,-77.0552,Washington
137,Blues Alley,10881,,1073 Wisconsin Ave NW,20007,38.9046446,-77.0624715,Washington
138,Capital One Arena,3640349,20278.0,601 F Street NW,20004,38.89801,-77.021,Washington
139,Ebenezers Coffeehouse,334951,,201 F St. NE,20002,38.897104,-77.003288,Washington
140,"The Gargoyle, 	Washington University",32179,499.0,6465 Forsyth Blvd.,63105,38.6466261,-90.30768379999999,St Louis
141,Ronald Reagan Building and International Trade Center,16136,,1300 Pennsylvania Ave. NW,20004,38.8954971,-77.0300809,Washington
142,Soundcheck,3060354,,1420 K Street NW,20005,38.90217,-77.03291999999998,Washington
143,Pearl Street Warehouse,3637839,,33 pearl st. sw,20024,38.803709999999995,-77.30749,Washington
144,"EagleBank Arena, George Mason University",812,10000.0,4500 Patriot Circle,22030,38.82675,-77.30975,Washington
145,The Pinch,2044809,,3548 14th Street NW,20010,38.93573,-77.03298000000002,Washington
146,Embassy Theatre,1088,,125 West Jefferson Boulevard,46802,41.076014,-85.13974300000002,Fort Wayne
147,Embassy Theatre,4180,,"Embassy Centre, Grand Parade",PE25 2UG,53.14379,0.34460999999999997,Hull
148,Embassy Theatre,101436,,Broadway,,52.5233262,-0.2432209,Peterborough
149,The Embassy Theatre,71492,,49 Baltimore St,21502,39.6513354,-78.76231130000002,Cumberland
150,Indiana Hotel at the Embassy Theatre,3792299,,125 West Jefferson Blvd.,46802,41.0757593,-85.1398324,Fort Wayne
151,Reggie's Rock Club,540136,300.0,2109 South State Street,60616,41.85405220000001,-87.62695140000002,Chicago
152,Randall's Island,1024,,20 Randall’s Island Park,10035,40.783766,-73.925671,New York
153,Randall's Island Park,3788999,,,10035,40.79407,-73.92716,New York
154,"Icahn Stadium, Randall's Island",112666,,,,,,New York
155,Spokane Arena,462,,720 West Mallon,99201,47.666398799999996,-117.42322250000001,Spokane
156,Happy Canyon Arena,2738,,1601 Westgate,97801,45.66838,-118.80278,Spokane
157,Star Theater at Spokane Arena.,3079829,,720 West Mallon Avenue,99201,47.665547600000004,-117.4236976,Spokane
158,Toyota Arena,857051,,7000 W. Grandridge Blvd,99336,46.219770000000004,-119.21658000000001,Spokane
159,Kelly's Arena,97682,,,,,,Spokane
160,Dahlberg Arena,342301,,,59812,46.861557,-113.98427009999999,Spokane
161,Four Seasons Arena,76269,,,,,,Spokane
162,Adams Center Arena,4012904,,,59812,46.86156,-113.98427,Spokane
163,Pendleton Rodeo Arena,3284694,,,97801,45.672075,-118.7885967,Spokane
164,The Miracle Theatre,2216084,,"535 8th St, SE",20003,38.881679999999996,-76.99512,Washington
165,Miracle Theatre - Dc,4013279,,,20003,38.883140000000004,-76.99023000000003,Washington
166,CenturyLink Center,569,,2000 CenturyTel Center Dr.,71112,32.4689,-93.6705,Shreveport
167,CenturyLink Field Event Center,47468,,,,,,Seattle
168,M Resort Spa Casino,498106,,"12300 Las Vegas Boulevard, South",89044,35.96570999999999,-115.17273999999999,Henderson
169,M Resort Spa & Casino Showroom,2683133,,12300 S Las Vegas Blvd,89044,35.96477210000001,-115.1684896,Henderson
170,"Poolside, M Resort Spa Casino",963646,,,89044,35.9208835,-115.1652008,Las Vegas
171,Tin Roof - Indianapolis,1866713,,"36 S. Pennsylvania St., Unit 190",46204,39.7659801,-86.15659649999998,Indianapolis
172,Festival at Sandpoint,1018051,,Memorial Field 855 Ontario St.,83864,48.2657989,-116.55976470000002,Sandpoint
173,Schweitzer Mountain Music Festival Grounds,827601,,"10000 Schweitzer Mountain Rd  Sandpoint, ID",83864,48.3679757,-116.62274409999999,Sandpoint
174,Jerry Festival,997631,,Camp Eureka,,48.274739000000004,-116.5546201,Sandpoint
175,Eichelberger Performing Arts Center,5493,,195 Stock Street,17331,39.80583,-76.98607,Baltimore
176,Canton Hall,3622809,,2727 Canton Street,75226,32.78247,-96.78326,Dallas - Fort Worth
177,Cobb Energy Performing Arts Centre,2878,,2800 Cobb Galleria Parkway,30339,33.884426899999994,-84.4583631,Atlanta
178,The Strand Theatre,4375,,619 Louisiana Ave.,71101,32.51,-93.74996,Shreveport
179,"Red Room, Cafe 939, Berklee College of Music",15777,200.0,939 Boylston St.,02215,42.346661,-71.08951409999997,Boston / Cambridge
180,Xfinity Theatre,69228,,61 Savitt Way,06120,41.7801718,-72.6693191,Springfield
181,RNCM Theatre,1078211,607.0,124 Oxford Road,M13 9RD,53.46410820000001,-2.2314898999999997,Manchester
182,SFX Theatre,43110,,,,,,Dublin
183,BAL Theatre,527826,,14808 East 14th St,94578,37.70878,-122.13287,SF Bay Area
184,"VIP Pavilion, Xfinity Theatre",3907854,,,06120,41.78881,-72.67129,Springfield
185,SVA Theatre,1136986,,333 West 23rd Street,10011,40.745927,-73.999747,New York
186,A.E.C. Theatre,1193581,,Corner Port Rd and Adam St,,-34.9087183,138.5767638,Adelaide
187,ABC Theatre,82771,,,,,,Blackpool
188,SKYCITY Theatre,104621,,78 Victoria St W,1010,-36.8482901,174.7618895,Auckland
189,ABC Theatre,115701,,Foregate Street,,53.1913355,-2.8858302000000005,Liverpool
190,JUTE Theatre,67943,,",",,-16.9185514,145.7780548,Cairns
191,UCB Theatre,73454,,,,,,New York
192,RKO Theatre,85324,,,,,,New York
193,ABC Theatre,49133,,,,,,Belfast
194,MAC Theatre,131437,,Cannon Hill Park,B12 9QH,52.452191299999996,-1.8988996,Birmingham
195,ABC Theatre,86425,,,,,,Plymouth
196,IMB Theatre,14870,,,2500,-34.424984,150.8931239,Wollongong
197,C Theatre,753326,,,95814,38.582493299999996,-121.49417379999998,Sacramento
198,AAAA Theatre,473071,,,,,,Alexandria
199,ABC Theatre,109278,,,,,,Edinburgh
200,RVA Theatre,2544209,,140 Virginia St.,23219,37.533432,-77.43401949999998,Richmond
201,VS. Theatre,1479088,,5453 W. Pico Blvd.,90019,34.04897570000001,-118.3572717,Los Angeles
202,ABC Theatre,109174,,Ardwick Green,,53.4712576,-2.2249256,Manchester
203,YMCA Theatre,3693474,290.0,St Thomas St,YO11 1DY,54.28360060000001,-0.3999569000000001,York
204,IMAC Theatre,65711,,,11743,40.87869910000001,-73.4062342,New York
205,ODA Theatre,3570639,,Youth and Sports Center,10030,42.661136799999994,21.1565244,Pristina
206,ABC Theatre,98105,,,,,,Middlesbrough
207,BEMAC Theatre,3155059,,102 Main Street Kangaroo Point,,-27.466794,153.03556899999995,Brisbane
208,SAS Theatre,3769609,140.0,1641 30 St NE,V1E 4P2,50.7117542,-119.2507803,Kamloops
209,NACL Theatre,4304689,,110 Highland Lake Road,,41.52545,-74.855,Highland Lake
210,IFT Theatre,578051,,,,,,Buenos Aires
211,RPM Theatre,90119,,,,,,Toronto
212,M Theatre,2565194,,"M Theatre 2884/2 New Pechburi Rd.,Bangkapi, Huakwang, Bangkok 10320",,13.7278956,100.5241235,Bangkok
213,CTG Theatre,3173229,500.0,520 S. Elm Street,27406,36.066590999999995,-79.79108599999998,Greensboro
214,STAGES Theatre,2546909,,400 East Commonwealth Ave,92832,33.8699515,-117.91707020000001,Los Angeles
215,PDCI Theatre,343341,,,,,,Ottawa
216,APC Theatre,1451198,,,90011,34.007889,-118.2585096,Los Angeles
217,CCA Theatre,4177144,,350 Sauchiehall Street,G2 3JD,55.86577,-4.26513,Glasgow
218,UDK Theatre,95482,,,,,,Berlin
219,TUYZ Theatre,3641439,,603000 Maxima Gorkogo St. 145,,56.31283570000001,43.990129700000004,Moscow
220,OK Theatre,3505169,,208 W Main St,97828,45.425258899999996,-117.279344,Portland
221,ABC Theatre,2487679,400.0,Grey St,4101,-27.476205699999998,153.0198206,Brisbane
222,MADE Theatre,2630693,,,,-37.5636495,143.8671868,Ballarat
223,CLF Theatre,3231349,,"Bussey Building, 133 Rye Ln, Peckham",SE15 4ST,51.4698563,-0.0679964,London
224,ABC Theatre,49135,,,,,,Dublin
225,H.M. Theatre,113051,,,,,,Melbourne
226,BMC Theatre,3567794,30.0,2 Florence Street,,-37.858390299999996,145.11091389999999,Melbourne
227,FTH Theatre,3693499,,"Westbridge Street,",FK1 5RS,56.0004036,-3.7898566,Glasgow
228,NYA Theatre,125477,,,,,,Horsens
229,UPC Theatre,100890,,,,,,Krakow
230,Westside Pavilion - Black Oak Casino Resort,4220934,,,95379,37.9627,-120.2413,Tuolumne
231,MetLife Stadium,33587,82500.0,One MetLife Stadium Drive,07073,40.8142092,-74.0736902,Jersey City
232,Pearl Concert Theater at Palms Casino Resort,851361,,4321 W. Flamingo Rd.,89103,36.114129999999996,-115.19651,Las Vegas
233,The Funhouse at Mr. Small's,2567349,800.0,400 Lincoln Ave.,15209,40.4808658,-79.9722298,Pittsburgh
234,The Mr. Roboto Project / the Funhouse at Mr. Smalls / Cafe Verona,4247964,,Pittsburgh,15224,40.4672,-79.94445,Pittsburgh
235,"Terry Fator Theatre, Mirage Hotel & Casino",821031,,3400 S. Las Vegas Blvd.,89109,36.12059,-115.17238,Las Vegas
236,"Drum Theater, Dandenong Town Hall",176113,,,,,,Melbourne
237,Buchanas Nightclub,4338263,,,37013,36.05927,-86.67061,Nashville
238,Town Park,16021,9000.0,500 E. Colorado Ave.,81435,37.936111600000004,-107.80677659999998,Colorado Springs
239,Telluride Town Park Campground,1269606,,500 East Colorado Ave,81435,37.936111600000004,-107.80677659999998,Colorado Springs
240,Town Park Pavilion,2619438,,,,37.9374939,-107.81228519999999,Colorado Springs
241,Dr. Lonnie Smith Town Park Stage,1969684,,500 E. Colorado Ave.,81435,37.935839,-107.80748500000001,Colorado Springs
242,24th Street Park,1111566,,24th Street,23451,36.850629999999995,-75.98482,Norfolk
243,Lucky You Lounge,4098684,,1801 W Sunset Blvd,99201,47.65338,-117.43907,Spokane
244,Imperial Theatre,4340822,,249 W. 45th St.,10036,40.75897,-73.98734,New York
245,Mr. Smalls Theatre,32492,800.0,400 Lincoln Ave.,15209,40.48127,-79.97268000000003,Pittsburgh
246,"Loeb Drama Center, American Repertory Theater",2836918,,,02138,42.3803274,-71.13891009999998,Boston / Cambridge
247,Loeb Drama Center,4341245,,,02138,42.38033,-71.13891,Boston / Cambridge
248,Ruth Eckerd Hall,441,2180.0,1111 McMullen Booth Road,33759,27.976029999999998,-82.70469,St Petersburg
249,The Cabooze,2049,1000.0,917 Cedar Ave,55404,44.963409999999996,-93.2469,Twin Cities
250,Cabooze Plaza,1333761,,917 Cedar Ave. S.,55404,44.9633695,-93.24688,Twin Cities
251,The Cabooze,178248,,,,,,Madison
252,Live From Daryl's House,2802178,,,12564,41.56204,-73.60263,Pawling
253,Northern Quest Casino,110230,4000.0,100 N. Hayford Road,99001,47.658409999999996,-117.56262,Spokane
254,Northern Quest Casino - Outdoor Stage,1882293,,,99001,47.6443782,-117.584404,Spokane
255,Northern Quest Casino - Indoor Stage,1882288,,,99001,47.6443782,-117.584404,Spokane
256,Pend Oreille Pavilion - Northern Quest Resort & Casino,2658128,,,99001,47.6443782,-117.584404,Spokane
257,Northern Quest Resort and Casino,4012589,,,99001,47.64438,-117.5844,Spokane
258,Swiftel Center,2813,,824 32nd Avenue,57006,44.31412,-96.75171,Sioux Falls
259,City National Civic,1044,,135 W San Carlos St,95113,37.3306455,-121.8895618,SF Bay Area
260,The Southgate House Revival - The Lounge,2062924,,111 East 6th Street,41071,39.092106,-84.49312900000002,Cincinnati
261,The Southgate House Revival - Revival Room,2027099,,111 East 6th Street,41071,39.09211,-84.49313000000002,Cincinnati
262,The Southgate House Revival - The Sanctuary,2038654,,111 E Sixth Street,41071,39.092106,-84.49312900000002,Cincinnati
263,The Southgate House Revival,2006484,,111 E Sixth Street,41071,39.092106,-84.49312900000002,Cincinnati
264,LE ROCHER DE PALMER,1080416,1200.0,1 RUE ARISTIDE BRIAND,33150,44.8615,-0.52583,Bordeaux
265,ESPACE CULTUREL ANDRE MALRAUX,383881,,Av.de Lattre de Tassigny,83140,43.09391,5.8391800000000025,Toulon
266,RADIANT - BELLEVUE,2080689,,1 Rue Jean Moulin,69300,45.79793,4.842980000000002,Lyon
267,LES ARENES DE METZ,99130,,5 AV LOUIS LE DÉBONNAIRE,57000,49.10869,6.18415,Metz
268,CLUB PICCADILLY UMEDA OSAKA,2828203,,大阪市北区太融寺8-17　プラザ梅田ビル8F,,34.701697700000004,135.5022882,Osaka
269,IF PERFORMANCE HALL ATASEHİR,3477094,,"Barbaros, Ataşehir Blv. No:216",34746,40.9939167,29.110578399999998,Istanbul
270,RADIO CUEBASE FM DE.,2534109,,"Limburger Str. 63 a, Idstein",,50.2264277,8.2649883,Wiesbaden
271,LA SALLE DES FETES,3875674,,39 COURS DE LUZE,33000,44.85705,-0.57891,Bordeaux
272,W/N W/N,2919108,,931 Spring Garden Street,19123,39.961890999999994,-75.154075,Philadelphia
273,CASA GRANDE EVENT CENTER,3714344,,938 Richards rd.,37013,36.0678408,-86.6816575,Nashville
274,FESTIVAL JARDINS DE PEDRALBES,3337054,,"Av. Diagonal, 686",08034,41.386521,2.1184257,Barcelona
275,E & C STUDIO,3849649,,341 Broome Street,10013,40.719429999999996,-73.99472,New York
276,LA GRANGE A DIMES,2758518,,PLACE DE LA MAIRIE,95440,49.018409999999996,2.37885,Paris
277,Китайский летчик Джао Да,2369239,,"Лубянский проезд, 25, стр. 1",101000,55.754909999999995,37.63455,Moscow
278,LA HUACANA NIGHT CLUB,3940839,,1005 E. Pescadero Ave.,95304,37.7620673,-121.4123131,Stockton
279,ARENA DU PAYS D'AIX,3790994,,1955 Rue Nicolas Ledoux,13290,43.47084,5.40297,Aix-en-Provence
280,EL DORADO EVENT CENTER,4104599,,227 New Laredo Hwy.,78211,29.37275,-98.53893000000001,San Antonio
281,CLUB-N (ANTES MAMBOS),3999214,,3652 S VIRGINIA ST.,,39.49061,-119.79305,Reno
282,SALA CÍRCULO DEL ARTE,3867769,,"Plaza San Vicente, 2",45001,39.85948,-4.0252,Toledo
283,EMILIANOS RANCH EVENT CENTER,3702434,,STATE LINE RD,64734,33.7457848,-90.6589505,Cleveland
284,LA SIERRA NIGHT CLUB,3593299,,8632 van nuys blvd,91402,34.22714000000001,-118.44958000000001,Los Angeles
285,MARCY'S BAR & LOUNGE,1963634,,35 S Colville St,99362,46.0672051,-118.3362324,Walla Walla
286,SOCIEDAD ITALIANA DE MORÓN,2757203,,San Martin 451,1708,-34.6026816,-58.3738615,Buenos Aires
287,MACACO CAOLHO IRISH PUB,3808109,,Av. Atlântica 3056 B Copacabana,22070000,-22.975773899999997,-43.18835900000001,Rio de Janeiro
288,LA TABERNA DE PANCHO,3754344,,50 woods lake rd,29607,34.855852,-82.35092309999997,Charlotte
289,NEW ORLEANS CREOLE RESTAURANT,28178,,114 First Avenue South,,47.601172,-122.3340435,Seattle
290,LADY OF THE LAKE,495211,,,,,,Norwich
291,XEX ATAGO GREEN HILLS,3910614,400.0,"Minatoku, Atago 2-5-1 Mori Tower 42F",105-6242,35.6621365,139.7488803,Tokyo
292,CONSERVATOIRE NATIONAL DE REGION,773316,,127  ave du Brancolar,06000,43.72548,7.272639999999999,Nice
293,HARLEM ARTE & MÚSICA,3913954,200.0,Juan N. Cumplido #28,44100,20.6766917,-103.3584412,Guadalajara
294,AXELRAD THE VILLAIN'S LAIR,2510584,,1517 ALABAMA ST,77004,29.734969,-95.37476,Houston
295,OXFORD JACQUELINE DU PRE,30467,,"St Hildas College,",OX4 1DY,51.7489035,-1.2452865,Oxford
296,ESPACE CULTUREL CAP NORT,2024259,,Route d'Heric  NORT SUR ERDRE,,47.43524,-1.510318,Nantes
297,THEATER ON THE LAKE,3786324,,2401 N Lake Shore DR,60614,41.92708,-87.63064,Chicago
298,STEMWEDER OPEN AIR FESTIVAL,2322704,,Hörstenweg 2,32351,52.41044,8.400039999999999,Osnabrück
299,MONASTERE ROYAL DE BROU,3996629,,"63, boulevard de Brou",01000,46.197959999999995,5.236219999999999,Bourg-en-Bresse
300,SHOW DC OASIS ARENA,3332354,,,,13.7563309,100.5017651,Bangkok
301,MUSIC ZOO KOBE 太陽と虎,1177181,250.0,神戸市中央区琴ノ緒町2-1-253,651-0094,34.6969184,135.19731919999998,Kobe
302,KIMIKO ISLE OF CAMPUS,3907869,,Campus-Boulevard 30,52074,50.7819341,6.0471605,Aachen
303,CENTRO CULTURAL EL ARBOL,2661713,,"MORELOS 10, 76000 QUERETARO",,20.6473425,-100.45719720000001,Queretaro
304,THE BEACH HOUSE CAFE,2185429,,"62 FRANKLIN PD, ENCOUNTER BAY",,-35.57492960000001,138.60200830000002,Adelaide
305,MUZA KAWASAKI SYMPHONY HALL,2423524,,,,,,Kawasaki
306,LA BAIA DEGLI ANGELI,3982559,3000.0,S.S. 159 delle Saline Margherita di Savoia,76016,41.40939,16.023989999999998,Barletta
307,CHORLEY ST BEDE'S CLUB,490731,,Brownley Street Clayton-le-woods,PR6 7JF,53.6971103,-2.638211,Preston
308,ESPACE CULTUREL DES PIEUX,3088189,,1 Allée de la Fosse,50340,49.6236847,-1.6579093,Cherbourg-Octeville
309,CIRCOLO ARCI G. GARIBALDI,2231029,,"Corso Antonio Gramsci, 52",51100,43.9311338,10.9130288,Florence
310,Rose Music Center at The Heights,2876978,,6800 Executive Blvd.,45424,39.87035,-84.10836,Dayton
311,"Murat Theatre, Old National Centre",535651,2681.0,502 N New Jersey St,46204,39.77465,-86.1515,Indianapolis
312,XS Nightclub,1074456,,3131 S Las Vegas Blvd,89109,36.127109999999995,-115.16483000000001,Las Vegas
313,TIME Nightclub,3400734,,1875 Newport Blvd. # B245,92627,33.642759999999996,-117.91798999999999,Los Angeles
314,Q Nightclub,1998904,,1426 Broadway,98122,47.613724100000006,-122.32061929999999,Seattle
315,RYSE Nightclub,3829674,,One Ameristar Blvd,63301,38.76735,-90.48448,St Louis
316,HQ Nightclub,2010504,,500 Boardwalk,08401,39.361751,-74.413501,Philadelphia
317,ACE Nightclub,1962354,,425 Adelaide Street West,M5H 1X9,43.649183,-79.3840651,Toronto
318,PURE Nightclub,1851778,680.0,146 S Murphy Ave,94086,37.376781,-122.029758,SF Bay Area
319,XL Nightclub,1631993,,512 West 42nd Street,10019,40.760012100000004,-73.9963989,New York
320,LAVO Nightclub,3173804,,39 E. 58th St.,10022,40.763020000000004,-73.97131999999998,New York
321,CQ Nightclub,1230496,,113 Queen Street,3000,-37.81575,144.96071,Melbourne
322,ONO Nightclub,2435674,800.0,1 South Orange Avenue,32801,28.541909999999998,-81.3789,Orlando
323,HC Nightclub,416331,,Linvägen 1,780 67,61.1609154,13.109454999999999,Sälen
324,AV Nightclub,1885543,,1601 N. Cahuenga Blvd.,90028,34.099957399999994,-118.3297973,Los Angeles
325,SQL Nightclub,3782374,,"30 NE 14th ST, Miami, FL",33132,25.78812000000001,-80.19355,Miami
326,NV Nightclub,3381379,,,,48.380895100000004,-89.2476823,Thunder Bay
327,ION Nightclub,3184224,,461 N 3rd St,19123,39.9589099,-75.1434842,Philadelphia
328,Q Nightclub,1977854,,704 Main St.,98660,45.626771999999995,-122.672003,Vancouver
329,XO Nightclub,2730043,,"150 Mayflower St Baton Rouge, Louisiana 70802",70802,30.4406961,-91.1895268,Baton Rouge
330,Z Nightclub,3423984,,,,59.7440738,10.2044564,Oslo
331,HOME Nightclub,29896,,One Ameristar Blvd,63301,38.767947,-90.484241,St Louis
332,NV Nightclub,2915988,750.0,125 E Jackson ave,37915,35.971388299999994,-83.9176839,Knoxville
333,POP Nightclub,37863,,,,,,Sheffield
334,LIT Nightclub,2844453,1200.0,3221 Olive St.,63103,38.636163,-90.226212,St Louis
335,MH Nightclub,3874169,,1701 E. McFadden Ave,92705,33.734298100000004,-117.84419299999999,Los Angeles
336,LED Nightclub,1656298,,Royal City Avenue Road,,13.7464008,100.57823940000002,Bangkok
337,RAW Nightclub,3759624,350.0,2-4 Wellington Road,YO21 1DY,54.4854429,-0.6154895,Whitby
338,ESP Nightclub,1515168,,"84 Oxford Street, Ferndale",2194,-26.081129999999998,27.98726,Johannesburg
339,EPIC Nightclub,3928564,,1420 Ave. Ponce de Leon,,18.4470918,-66.0696561,San Juan
340,UN Nightclub,1606724,,3548 River Road,60131,41.943031,-87.854709,Chicago
341,EXIT Nightclub,3857589,,Laurinkatu 55,08100,60.25054599999999,24.0647482,Lohja
342,BOOM Nightclub,2668158,,352 Shute Harbour Rd,4802,-20.268477999999998,148.717139,Airlie Beach
343,V Nightclub,2820828,,409 Colorado Ave,78701,30.267021999999997,-97.74444890000001,Austin
344,HOLY Nightclub,3900209,,Av. Terranova 1044,44670,20.6912684,-103.3865058,Guadalajara
345,FLYT Nightclub,4340781,,372 Main Street,57732,44.38475,-103.7217,Sturgis
346,HAUS Nightclub,3302549,,285 W Broadway,,40.7209197,-74.0046772,New York
347,NWC Nightclub,2478734,500.0,135 Finchley Road. Swiss Cottage,NW3 6JH,51.549868599999996,-0.1824606,London
348,ONE Nightclub,1889343,,,,,,Chanthaburi
349,AMN Nightclub,3594004,,,,23.12911,113.264385,Guangzhou
350,LUX Nightclub,2735758,,1 W Exchange St,44308,41.076912,-81.522391,Akron
351,NASA Nightclub,2508449,,Gothersgade 8F,1123,55.682244,12.584724000000001,Copenhagen
352,ADN Nightclub,3262119,,428 avenue de Buckingham,,45.5886567,-75.4167848,Ottawa
353,MCCXXIII Nightclub,13153,,1223 Connecticut Avenue Nw,20005,38.9066251,-77.0414937,Washington
354,AI Nightclub,4333139,,,,,,Taipei
355,PRSYM Nightclub,3372909,,,,41.8781136,-87.62979820000002,Chicago
356,LICK Nightclub,4315524,,,,,,Algarve
357,BRIX Nightclub,4297949,,"1924 South US-277 Lawton, OK",73501,35.0308,-97.93495,Oklahoma City
358,XS Nightclub,4280244,,718 S Pine Ave,34471,29.180970000000002,-82.14045,Orlando
359,VIBE Nightclub,3632164,,Vesterbrogade 2B,1620,55.6756733,12.5666063,Copenhagen
360,J.D.'S Nightclub,66002,,,,,,Helena
361,YANG Nightclub,4339798,,"3A River Valley Road, #01-02 Clarke Quay",Singapore 179020,1.28956,103.84506,Singapore
362,Madison Square Garden,477,20000.0,7th Ave & 32nd St,10001,40.74971,-73.99155999999998,New York
363,Theater at Madison Square Garden,299711,5600.0,7th Ave & 32nd Street,10121,40.7497096,-73.991556,New York
364,Hulu Theater at Madison Square Garden,3852369,,4 Pennsylvania Plaza,10001,40.75056,-73.99347,New York
365,Madison Square Garden,73187,,"4 Pennsylvania Plaza, New York, NY",10001,40.7505,-73.99344,Phoenix
366,Club Bar & Grill at Madison Square Garden,3674189,,4 Pennsylvania Plaza,10001,40.75074,-73.9938,New York
367,Madison Square Garden,3727054,,"Ha-Menofim St 5, Herzliya",,32.160406300000005,34.8070453,Tel Aviv-Jaffa
368,August Hall,3801954,,420 Mason St,94102,37.78759,-122.40961000000001,SF Bay Area
369,Nationwide Arena,522,,200 West Nationwide Boulevard,43215,39.9694,-83.00636,Columbus
370,"Red, White & Boom - Nationwide Arena Plaza Stage",2684853,,200 W. Nationwide Blvd,43215,39.96935120000001,-83.0063849,Columbus
371,Underground Arts,1478523,600.0,1200 Callowhill Street,19123,39.9591168,-75.1583146,Philadelphia
372,Subculture Arts Underground,2199369,,45 Bleecker Stret,10012,40.7258626,-73.994291,New York
373,Black Box @ Underground Arts,2930308,,1200 Callowhill St,19123,39.9591,-75.15831999999997,Philadelphia
374,Performing Arts Center Underground Theatre,1479133,,,,,,Seattle
375,Arts Exhange Underground,4174829,,,,,,Ojai
376,"Underground Theater, Community Arts Cafe",1662533,,411 W. Fourth St.,27101,36.098044,-80.248644,Winston-Salem
377,Fair Park - Nashville,4173519,,,37203,36.15238,-86.78939,Nashville
378,The Ford Center at the Star,4341271,,,75034,33.13765,-96.85654,Plano
379,Ikeda Theatre,4012104,,,85211,33.41805,-111.83138999999998,Mesa
380,Nile Theatre,4012479,,,85210,33.39026,-111.84493,Mesa
381,Broadway Palm Dinner Theatre,1897878,,5247 E. Brown Rd.,85205,33.436073,-111.717758,Mesa
382,Julie's Chicken and Waffles Fine Dining Theatre,1620293,,2050 W Guadalupe Rd,85202,33.3647941,-111.878391,Mesa
383,Desert Rose Theatre,2162129,,"2055 South Power Road, #1087",85209,33.3776689,-111.6880048,Mesa
384,Pacifica Theatre,464436,,,,,,Los Angeles
385,Mesa Theatre,4342398,,,,,,Denver
386,Honda Center,6787,18900.0,2695 E. Katella Ave.,92806,33.807722999999996,-117.876522,Los Angeles
387,The Theater at The Honda Center,98170,,2695 E. Katella Ave.,92806,33.806092,-117.877604,Los Angeles
388,Festival Village at the Honda Center,3885204,,2695 E Katella Ave,92806,33.8079071,-117.8767457,Los Angeles
389,Laguna Honda Hospital and Rehabilitation Center,2164774,,375 Laguna Honda,,37.7473599,-122.4591614,SF Bay Area
390,Broadmoor World Arena,3205773,,3185 Venetucci Blvd,80906,38.788245399999994,-104.7942311,Colorado Springs
391,Knitting Factory Concert House,31807,1500.0,919 West Sprague Avenue,99201,47.6569974,-117.42602520000001,Spokane
392,"Au-Rene Theater, Broward Center for the Performing Arts",3233,,201 SW Fifth Ave.,33312,26.1197293,-80.1492545,Fort Lauderdale
393,Au-rene Theater at the Broward Center,4012474,,,33312,26.0899,-80.18193000000002,Fort Lauderdale
394,Gallagher Way,3919164,,3635 N Clark St.,60613,41.94792,-87.65675,Chicago
395,Paramount Theatre,1461018,1500.0,370 New York Ave.,11743,40.86974,-73.4258,New York
396,Columbia's Live Music Block at Tin Roof & the Senate,4159689,,,20201,34.00071,-81.03481,Columbia
397,Cool Insuring Arena,1317,,1 Civic Center Plaza,12801,43.30839,-73.64296,Burlington
398,8 Seconds Saloon,11109,,111 N Lynhurst Dr,46224,39.7683008,-86.2503647,Indianapolis
399,8 Seconds Saloon,813986,,2204 FM 205,76401,32.2235382,-98.1740025,Stephenville
400,Lawrence Joel Veterans Memorial Coliseum,45293,,2825 University Pkwy.,27105,36.126290000000004,-80.25426999999998,Winston-Salem
401,Ordway Center for the Performing Arts,28712,,345 Washington Street,55102,44.94458,-93.09765,Twin Cities
402,"Andrew Jackson Hall, Tennessee Performing Arts Center",16988,,505 Deaderick St.,37219,36.16525,-86.78161,Nashville
403,3rd & Lindsley Bar and Grill,5840,1000.0,816 3rd Avenue South,37210,36.1521634,-86.76991059999996,Nashville
404,3rd & Lindsley,2091279,,818 3rd Ave. S,37210,36.15207589999999,-86.770085,Nashville
405,3rd Wheel,2796713,299.0,1634 Main St,83501,46.41702,-117.0082,Lewiston
406,3rd Street Live (formally Aces Comedy Club),3202638,,41915 3rd St,92590,33.493740100000004,-117.1472379,San Diego
407,3rd & Girard,2481869,,1176 North 3rd Street,19123,39.969632,-75.141769,Philadelphia
408,3rd Street Dive,163843,,440 South 3rd Street,,38.2521166,-85.75564849999998,Louisville
409,3rd Street Pub,1854728,,314 SE 3rd Street,97701,44.05357,-121.30246000000001,Salem
410,3rd Street Promenade,88396,,1200-1400 3rd Street,90401,34.0155216,-118.4958858,Los Angeles
411,3rd Avenue,3135844,,Senopati,,-6.2305195,106.8074253,Jakarta
412,Pig 'n Whistle on 3rd,1482308,,922 3rd Avenue,,40.759389899999995,-73.9684421,New York
413,51 3rd,1089576,,51 3rd Street,12180,42.730544,-73.690783,Springfield
414,3rd Street Live,11199,,1202 1/2 Third Street Southeast,52401,41.9701501,-91.6581077,Des Moines
415,3rd Death Star,164208,,613 Main St.,,42.2868477,-83.74828959999998,Detroit
416,3rd Street Bar,2125224,,3rd Street,89501,39.507894,-119.9994672,Reno
417,3rd Place,2951958,,132 Appalachian Street,28607,36.217255,-81.68243199999998,Winston-Salem
418,Thursdays on First and 3rd,2602148,,1st Avenue SW & 3rd Street SW,55902,44.020449600000006,-92.4645165,Twin Cities
419,3rd Ward,80337,,195 Morgan Ave,11237,40.7108748,-73.9338303,New York
420,3rd Swiss Rock| Blues Cruise,329346,,,,,,Genoa
421,3rd Floor Cantina,85955,,,,,,Austin
422,3rd Coast Showcase at G&s Lounge,1680023,,2420 South 1st Street,,30.24139550000001,-97.7601922,Austin
423,3rd St Pub,3514689,,314 SE 3rd st,97702,44.047203100000004,-121.3024818,Salem
424,3rd and 3rd,2865963,,301 NE 3rd Ave,33444,26.467296,-80.070026,Fort Lauderdale
425,The Venue on 3rd,2471404,,905 E. 3rd Street,45402,39.76201500000001,-84.17916899999999,Dayton
426,3rd & Lindsley Theater,1638718,,818 3rd Avenue South,37210,36.1521315,-86.7698468,Nashville
427,Delancey's on 3rd,2409649,,810 SOUTH 3RD,98059,47.4799,-122.20613999999999,Seattle
428,E3rd Steakhouse,983076,,734 E. Third St.,90013,34.0456229,-118.23675890000001,Los Angeles
429,3rd Floor Outside the Market,1438478,,395 Santa Monica Place,90401,34.0137849,-118.4942327,Los Angeles
430,The Cloverdale Playhouse - Joe Thomas Jr. 3rd Tuesday Guitar Pull,3082919,,960 Cloverdale Road,36106,32.3524483,-86.2925997,Montgomery
431,Patrick's on 3rd,2114289,,125 S. 3rd Street,,44.326204600000004,-93.95738730000001,Twin Cities
432,Back Bar - 3rd St.,2603548,,21 N. 3rd Street,95112,37.3374564,-121.8887263,SF Bay Area
433,3rd & Linsley,1111036,,818 3rd Ave S,37210,36.152210600000004,-86.76985859999998,Nashville
434,3rd & Lindley,710026,,,,,,Nashville
435,3rd & Army,2689308,,"Behind the Bus Depot, 3rd and Chavez",94107,37.7618242,-122.3985871,SF Bay Area
436,3rd Street Park,317791,,,,,,Indianapolis
437,The 3rd Degree,265676,,,,,,New York
438,4795 Sandhill Rd Unit 3,4011484,,4795 SANDHILL Rd,,36.10194,-115.09241999999999,Las Vegas
439,3rd Floor Underground (3FU),91140,,,,,,Bridgeport
440,3rd Eye (sol)ation Art Gallery,2463354,,1501 Broadway,11221,40.687249,-73.917631,New York
441,The Key Club (3rd Level Steve's Soul Food),2249769,,1440 Franklin Street,48226,42.33291,-83.03089,Detroit
442,3rd & Walnut,803291,,,,39.952335,-75.16378900000002,Philadelphia
443,53Rd & 3Rd,260246,,,,,,Moncton
444,E. 3rd,69988,,,,,,Los Angeles
445,3rd Rock,131035,,,,,,Twin Cities
446,3rd St Arts,242473,,711 Third Street Sw,87102,35.0783974,-106.6515551,Albuquerque
447,3rd Street Blues,808991,,,,,,Reno
448,3 rd & Girard street,2758633,,"1176 N. Third St., Philadelphia",,39.969632,-75.141769,Philadelphia
449,3rd Street Armory,2779003,,,,33.7489954,-84.3879824,Atlanta
450,3rd Presbyterian Church,1949524,,3358 Mchenry Ave,,39.14714,-84.571067,Cincinnati
451,3rd & B Streets,560936,,,,,,Sacramento
452,3rd Street Tap House,4140194,,112 N 3rd St,40004,37.80997,-85.46700000000001,Bardstown
453,War Memorial Auditorium,6192,,301 6th Ave N,37243,36.16449,-86.78313,Nashville
454,Off Broadway,300,400.0,3509 Lemp Avenue,63118,38.59035,-90.21918000000001,St Louis
455,Off Broadway,1278241,,63-65 Broadway Market,E8 4PH,51.53712700000001,-0.061359699999999996,London
456,Off Broadway Taproom,2922083,,218 E. Main St,47250,38.736018,-85.377978,Madison
457,Comedy off Broadway,3387754,,,,38.040583700000006,-84.50371640000002,Lexington
458,Off Broadway Hotel,544731,,"Bay st, Ultimo  Broadway Shopping Centre",2000,-33.883629799999994,151.19394450000001,Sydney
459,Erickson Theater Off Broadway,1021901,,1524 Harvard Ave,98122,47.6148041,-122.3220946,Seattle
460,Off Broadway Art Centre,11711,,639 Main Street,S7H 0J8,52.116771,-106.654372,Saskatoon
461,OFF BROADWAY MUSIC VENUE,4320869,,3509 Lemp Ave,63118,38.59036,-90.21935,St Louis
462,Jimmy Tingle's Off Broadway Theater,211623,,,,,,Boston / Cambridge
463,Stormy's Off Broadway,454291,,132 W. Second St.,,39.729978100000004,-121.8409534,Sacramento
464,Off Broadway Nightclub,124674,,,,,,Aurora
465,Bites Off Broadway,2345519,,365 45th St,,37.832915,-122.257369,SF Bay Area
466,Just Off Broadway Theatre,551076,,3051 Penn Valley Drive,64108,39.07203,-94.58819,Kansas City
467,Off Broadway Lounge,2272199,,,,,,Denver
468,Off-broadway Theatre,836071,,,,,,Milwaukee
469,Rib-Off On Broadway,2986868,,,,41.04422,-83.6499321,Findlay
470,The Geoffrey Off Broadway,3393914,,923 1st Ave,92101,32.7149465,-117.16377479999998,San Diego
471,Off Broadway Acoustic Blues Room,1224306,,639 Main Street,S7H0J8,52.116771,-106.654372,Saskatoon
472,Floyd L. Maines Veterans Memorial Arena (formerly Broome County Veterans Memorial Arena),2752978,,1 Stuart Street,13901,42.09617,-75.91281,Rochester
473,Altria Theater,2585343,,6 North Laurel St.,23220,37.5462,-77.45214,Richmond
474,Lakefront Arena Grounds,4302364,,,70122,30.00872,-90.06533,New Orleans
475,The Masquerade,196,4000.0,75 MLK Jr Drive SW,30303,33.75103,-84.39028,Atlanta
476,Purgatory at The Masquerade,1135851,220.0,75 MLK Jr Drive SW,30303,33.75103,-84.39028,Atlanta
477,Hell at The Masquerade,1142261,550.0,75 MLK Jr Drive SW,30303,33.7510307,-84.3902825,Atlanta
478,Heaven at The Masquerade,1244831,,75 MLK Jr Drive SW,30303,33.75103,-84.39028,Atlanta
479,The Masquerade - The Music Park,1113521,,695 North Ave,30308,33.7710375,-84.3648011,Atlanta
480,The New Masquerade,3649554,,"50 Lower Alabama St. SE, Suite 22",30308,33.7524039,-84.39000490000002,Atlanta
481,The Masquerade - The Loft,3419259,,695 North Ave NE,30308,33.7707416,-84.3644225,Atlanta
482,Historic Fourth Ward Park & Masquerade Music Park,3047199,,,,33.7489954,-84.3879824,Atlanta
483,Masquerade at Kennys Alley,3671694,,,,33.7489954,-84.3879824,Atlanta
484,Soldier Field,14732,61500.0,1410 S Museum Campus Dr # 2,60605,41.86611,-87.61729,Chicago
485,Stadium Green at Soldier Field,1013101,,1410 S. Museum Campus Dr.,60605,41.86383,-87.61631,Chicago
486,Soldier Field South Festival Lot,1064381,,1410 S. Museum Campus Drive,60616,41.862125299999995,-87.6167867,Chicago
487,Wente Vineyards,15093,,5050 Arroyo Road,94550,37.6232497,-121.7581561,SF Bay Area
488,Wente Vineyards Estate Winery,1915933,,5565 Tesla Road,94550,37.6650617,-121.72459860000001,SF Bay Area
489,Wente Vineyards Restaurant,1119861,,,,,,SF Bay Area
490,UNO Lakefront Arena,571396,10000.0,6801 Franklin Ave,70122,30.029013800000005,-90.0522748,New Orleans
491,Antone's,2195289,,305 E 5th St,78701,30.26605,-97.74039,Austin
492,Antone's - Old Location,1449,,213 W. Fifth St.,78701,30.267643699999997,-97.7453912,Austin
493,Antone's - Austin,4012209,,,78701,30.27292000000001,-97.74439,Austin
494,Antone's Nightclub,3205388,,305 5th St.,78701,30.26766,-97.74613000000001,Austin
495,Antone's Record Shop,755036,,2928 Guadalupe,78705,30.29625,-97.742616,Austin
496,Weddings San Antone,128422,,,,,,Austin
497,Antone's Record Store,3999014,,2928 Guadalupe St #101,78705,30.2964,-97.7426,Austin
498,Paul Paul Theatre,1255,,1121 South Chance Avenue,93702,36.73188,-119.75119,Fresno
499,Palace Theatre,3437364,,17 W. 7th Pl.,55102,44.94724,-93.0967,Twin Cities
500,Théâtre Paul Eluard,595281,,"4, Av De Villeneuve Saint Georges",95870,48.76635,2.41457,Paris
501,Ordway Theatre,189583,,,55102,44.93438,-93.11274,Twin Cities
502,Paul Poag Theatre,616771,,746 S . Main St .,78840,29.3576863,-100.8987743,Del Rio
503,"Lucille Little Theatre, Sts. Peter & Paul School",3240674,,423 West Short Street,40507,38.0505056,-84.49927149999998,Lexington
504,Théâtre Paul Eluard,2179859,,162 rue Maurice Berteaux,95870,48.931163700000006,2.2072574,Paris
505,John Paul Theatre at Phoenix College,1467248,,1202 W Thomas Road,85013,33.484574,-112.088656,Phoenix
506,Théâtre Paul-Émile Meloche,3488879,,"400, avenue Saint-Charles",J7V 6B1,45.39256810000001,-74.02592159999998,Montreal
507,"Merle Reskin Theatre, DePaul University",40616,,60 E. Balbo Ave.,60605,41.8734096,-87.6253245,Chicago
508,Steppingstone Theatre,1044011,,55 Victoria Street North,55104,44.94316,-93.13682,Twin Cities
509,Paul Robeson Theatre,3639429,,"High St, Hounslow",TW3 1ES,51.46935,-0.35991999999999996,London
510,Paul Robeson Theatre - Rainier Beach High School,2323019,,8815 Seward Park Avenue South,98118,47.5244347,-122.26619099999999,Seattle
511,Nautilus Music Theatre,3401979,,308 E Prince Street,55101,44.9492634,-93.08358570000001,Twin Cities
512,Historic Mounds Theatre,1580093,,1029 Hudson Road,55106,44.9687549,-93.04859509999999,Twin Cities
513,"""Bouge à Clansayes"" - Théâtre du Vallon",2958828,,,,44.348678,4.768294999999998,Saint-Paul Trois Chateaux
514,"E.M. Pearson Theatre, Concordia University",1593183,,312 N Hamline Avenue,55104,44.95225670000001,-93.15681049999999,Twin Cities
515,Théâtre Cinéma Paul Éluard,3676259,,"4, avenue de Villeneuve Saint-Georges",,48.76670220000001,2.4145623,Paris
516,Lehr Theatre,1593188,,15 W. 5th,55102,44.945559,-93.09514,Twin Cities
517,Théâtre De Lile Saint-louis Paul Rey,4260119,,39 Quai dAnjou,75004,48.85225,2.35733,Paris
518,The Penumbra Theatre,3362889,,270 Kent,55102,44.949391999999996,-93.122961,Twin Cities
519,Stone Mountain Arts Center,388836,,695 Dug Way Rd,04010,43.9079542,-70.9445532,Brownfield
520,Mountain Arts Center,364106,,50 Hal Rogers Drive,41653,37.65702,-82.79417,Prestonsburg
521,Smoky Mountain Center for the Performing Arts,1082906,,1028 Georgia Rd,26734,35.16035,-83.39165,Knoxville
522,Mountain Laurel Center for the Performing Arts,63804,,"1 Tamiment Dr, Lehman Township",18324,41.14999870000001,-74.9910112,Newark
523,Rocky Mountain Center for Musical Arts,897091,,200 E Baseline Rd,80026,40.0004061,-104.8460625,Denver
524,"Mountain Stage, WVU Creative Arts Center",1578813,,1 Evansdale Dr.,26506,39.6476521,-79.9678728,Pittsburgh
525,Black Mountain College Museum + Arts Center,3078484,,56 Broadway St.,28801,35.5973,-82.55216999999998,Knoxville
526,Rocky Mountain Center for the Musical Arts,1963279,,200 East Baseline Road,80026,40.00023,-105.08933999999999,Denver
527,Black Mountain Center for the Arts,3250674,,225 West State Street,28711,35.61589,-82.32134,Black Mountain
528,Mountain View Center for the Performing Arts,47932,,,,37.3860517,-122.08385109999999,SF Bay Area
529,Smokey Mountain Center for the Performing Arts,4333126,,1028 Georgia Rd,28734,35.15953,-83.3892,Knoxville
530,Mountain Stage at WVU Creative Arts Center,4143234,1409.0,1436 Evansdale Drive,26506,39.64802,-79.9759,Pittsburgh
531,Oak Mountain High School Performing Arts Center,3144504,,5476 Caldwell Mill Road,35124,33.35999,-86.73723000000004,Birmingham
532,Community School of Music and Arts Finn Center,3252144,,230 San Antonio Circle,94040,37.407419,-122.1111242,SF Bay Area
533,Canalside,2254449,,44 Prime St.,14203,42.87599520000001,-78.8775161,Buffalo
534,Thursday at Canalside,2318429,,Erie Canal Harbor Central Wharf,14202,42.8769032,-78.8793511,Buffalo
535,The Canalside Pub & Grill,3238284,,Redding Road,FK2 0DP,55.982735399999996,-3.7388385000000004,Glasgow
536,Kegs Canalside,3957159,,7 N Hamilton St,13080,43.0668816,-76.4784495,Rochester
537,Canalside Bar,2650338,,"Lock 17, Middle Yard",NW1 8AB,51.541492299999994,-0.1458388,London
538,Canalside Buffalo Place,2289124,,1 Marine Drive,14094,42.876325,-78.87886800000003,Buffalo
539,Canalside Buffalo,3041294,,,,42.88645,-78.87836999999998,Buffalo
540,The Canalside,3489954,,232 West Street,,42.8858804,-79.2502175,Saint Catharines
541,Canalside Community Radio,2972313,,,,53.2967,-2.096652,Manchester
542,Canalside Heritage Centre,3945434,,"Weir Cottages, Canalside, Beeston",NG9 1LZ,52.912701,-1.204611,Nottingham
543,Gold Strike Casino,15591,,1010 Casino Center Drive,38664,34.84625,-90.33243,Memphis
544,"Millennium Theatre, Gold Strike Casino",132853,,,,34.81579,-90.32276999999999,Memphis
545,"Live Oaks Ballroom, Gold Strike Casino",4198684,,,38664,34.81732,-90.31621,Memphis
546,Dirty Bourbon Dance Hall,1465128,,9800 Montgomery Blvd.,87111,35.129833000000005,-106.53183600000001,Albuquerque
547,The Bourbon Hall,3846309,,"116 W Jefferson St, ,",40202,38.25323,-85.75305,Louisville
548,The Dirty Bourbon Dance Hall & Saloon,2971598,,9800 Montgomery Blvd.,87111,35.13041,-106.53241000000001,Albuquerque
549,Boot Barn Hall at Bourbon Brothers,4143854,,13071 Bass Pro Drive,80921,39.02324,-104.82507,Colorado Springs
550,The Sheldon Theatre,129951,,443 W 3rd St,55066,44.564029999999995,-92.53501,Red Wing
551,Great Stage Park,47323,,1560 New Bushy Branch Rd.,37355,35.47811,-86.04642,Chattanooga
552,Runway Stage at the Great Park,1918749,,7060 Hollywood Boulevard,90028,34.201206299999996,-118.38554450000001,Los Angeles
553,The Wiltern,780,2300.0,3790 Wilshire Blvd,90010,34.06194,-118.30883999999999,Los Angeles
554,Gallivan Center,31795,,239 S. Main St.,84111,40.763459999999995,-111.89081999999999,Salt Lake City
555,The Gallivan Center - Vip Entrance,3028699,,200 South between Main & State,84111,40.756938899999994,-111.88368740000001,Salt Lake City
556,Aretha's Jazz Cafe,4050524,,25 E Palmer St Apt 71,48202-3838,42.36221,-83.06756,Detroit
557,Fitzgerald Theater,2759,,10 East Exchange Street,55101,44.94917,-93.09744,Twin Cities
558,Camp Mars,3065399,,26801 Dorothy Drive,91302,34.14195,-118.73706000000001,Los Angeles
559,The Van Buren,3477604,,Van Buren,85003,33.451409999999996,-112.07818999999999,Phoenix
560,"Kiva Auditorium, Albuquerque Convention Center",36291,,401 Second St. NW,87102,35.086529999999996,-106.6484,Albuquerque
561,Charleston Municipal Auditorium,3200,,224 Virginia Street East,25301,38.35337,-81.64095999999998,Charleston
562,Charleston Municipal Auditorium,57812,,,,,,Columbia
563,Hawthorne Theatre,11593,,1507 SE 39th Ave.,97214,45.5118718,-122.6229791,Portland
564,Hawthorne Theatre and RollerCity,2384644,,Campus West,AL8 6BX,51.8052316,-0.20805729999999997,Welwyn Garden City
565,Burke-hawthorne Hall Theatre- Ul-lafayette Campus,4045454,,231 Hebrard Boulevard,70503,30.21347,-92.0188,Baton Rouge
566,Cougar Theatre (formerly Nyman Hall),3267374,,4859 W. El Segundo Blvd,90250,33.91691160000001,-118.3631368,Los Angeles
567,"Olympia Theater, Gusman Center for the Performing Arts",1589063,1500.0,174 East Flagler Street,33131,25.77384,-80.19048000000002,Miami
568,The State Theatre of Ithaca,4390,1611.0,107 W. State St.,14850,42.43953,-76.49936,Rochester
569,State Theatre Marquee,2356404,,107 W. State St.,14850,42.4395124,-76.4993622,Rochester
570,Lorain Palace Theatre,4940,,617 Broadway,44052,41.46581,-82.1749,Cleveland
571,Sacramento Memorial Auditorium,28881,3867.0,1515 J Street,95814,38.578559999999996,-121.48584,Sacramento
572,Bell Memorial Union Auditorium,265571,999.0,548 West Second Street,95929,39.72717700000001,-121.8450148,Sacramento
573,Memorial Auditorium,4169394,,1515 J St.,95814,38.57884,-121.48572,Sacramento
574,Memorial Auditorium Sacramento,3173409,,1400 J St .,95814,38.578359999999996,-121.48807,Sacramento
575,Hawaii Theatre,4826,,1130 Bethel St,96813,21.31086,-157.86115,Honolulu
576,Hawaii Theatre Center,3046019,,1130 Bethel St,96813,21.311024,-157.8611249,Honolulu
577,Hawaii Theatre - Honolulu,3354324,,,,21.3069444,-157.8583333,Honolulu
578,Atomic Cowboy Pavilion,4044824,,,63110,38.62125,-90.25262,St Louis
579,The Iron Horse,2485289,,320 West Pearl Street,39203,32.299696999999995,-90.1918918,Jackson
580,The Iron Horse,2546094,,122 Station Rd,DA15 7AB,51.434382799999995,0.10260239999999997,London
581,The Iron Horse,2550524,,122 Station Rd,DA15 7AB,51.434382799999995,0.10260239999999997,London
582,The Iron Horse Restaurant,1320541,,100 South Railroad Ave.,23005,37.7587885,-77.4815168,Richmond
583,The Iron Horse,35649,,,T6E 3X8,53.51736260000001,-113.4941929,Edmonton
584,The Iron Horse Bar & Grill,2556889,,,,-41.4261807,147.1124679,Launceston
585,The Iron Horse Hotel Milwaukee,4338704,,,,,,Milwaukee
586,The Iron Horse Bar and Grill,2460259,,1 Church St.,L0L1L0,44.410588399999995,-79.5811822,Barrie
587,Soma,1298,,3350 Sports Arena Boulevard,92110,32.753820000000005,-117.20926999999999,San Diego
588,Bar Soma,544641,,4/22 Constance St,4006,-27.456159000000003,153.036214,Brisbane
589,Soma Sidestage,704841,,3350 Sports Arena Blvd,92110,32.753820000000005,-117.20926999999999,San Diego
590,Resonance at Soma Towers,2965078,,288 106th Ave NE,98004,47.61273,-122.19855,Seattle
591,Shinsaibashi Soma,1123251,,"Osaka Chuo-ku, Osaka-shi,  Higashi-Shinsaibashi 2-chome, 1-13 Osaka-ya jumbo building B1F",542-0083,34.681259999999995,135.5098,Osaka
592,Soma Espaso,513591,,"Rua Fidalga, 98",05432000,-23.5583149,-46.6884658,São Paulo
593,Noma,3814074,,,,,,Bangkok
594,Soma+Lab,3825379,,"Rua Almirante Greenhalgh, 36",,-21.7558651,-41.3392806,Macaé
595,SOMA Centro Histórico,3687034,,11 Calle 4-27 Zona 1,,14.638569400000002,-90.5157937,Guatemala City
596,The Live House Soma,1315441,,,,,,Osaka
597,Soma,339076,,,,,,Hannover
598,Soma,899461,,,,,,Mexico City
599,Soma,512581,,1915 Broadway,,40.017268200000004,-105.27976299999999,Denver
600,Moma,1876163,,11 West 53rd Street,10019,40.7609758,-73.9772505,New York
601,Moma,3573314,,,,37.122031299999996,-1.8611011000000002,Almería
602,Soma Bay,3868084,,,,,,Hurghada
603,Soma Mainstage,738406,,,,,,San Diego
604,Soma Club,2180654,,,,,,Bogota
605,Soma Yoga,4046364,,Hebelstraße 23a,79104,48.00059,7.8476,Freiburg
606,Bar Soma,3241299,,,,61.48513929999999,21.7974178,Pori
607,Studio Soma,135538,,2540 West 29th Avenue,80211,39.7583133,-105.0188918,Denver
608,Soma Vida,3295049,,2324 E. Cesar Chavez,78702,30.255359000000002,-97.71813399999999,Austin
609,Soma Ultralounge,2813723,,320 N Neil St,61820,40.118679,-88.242863,Champaign
610,Soma Bar,3930109,140.0,"HIPOLITO YRIGOYEN 2463 (73,24 km)",5600,-34.612790000000004,-68.339268,San Rafael
611,Soma Bistro,3812784,,,,,,Manila
612,Soma Metro,749226,,,,,,San Diego
613,Soma Contemporary Gallery,3157914,,6 Lombard Street,EIR,52.2594192,-7.1052527,Waterford
614,Loma,3397104,,,,49.7913044,9.953354800000001,Würzburg
615,Magdalena meets Soma Project,3342349,,Alt Stralau 1-2,10245,52.49715,13.46502,Berlin
616,Soma,3693224,,,,34.693740000000005,135.50217,Osaka
617,Soma,1474533,,,,,,Lima
618,Soma,3820834,,,,,,Glasgow
619,Soma,317831,,,,,,Indianapolis
620,Noma,1133926,,,,,,Winston-Salem
621,Penn State SOMA Arts Crawl,3269329,,Penn State North Campus,,40.82107720000001,-77.815493,Pittsburgh
622,SOMA,401846,,,,,,Phoenix
623,Koma,121727,,,,,,Biberach
624,Koma,364896,,,,,,Worgl
625,Moma,1586508,,Via Caduti Di Nassirya,,41.0890606,14.2550645,Caserta
626,Atelier Soma,3079364,,,,-25.428954100000002,-49.267137,Curitiba
627,Soma Project,4123649,,,,,,Goa
628,Soma Underbar,1922219,,,,,,Concepción
629,Cafe Soma,49015,,,,,,Glasgow
630,Soma Festival,46308,,,,,,Cologne
631,Soma Cafe,609111,,400 Spence Street,,49.8920042,-97.1540696,Winnipeg
632,Soma - Brunswick,3615189,,421 Sydney Road,,-37.767496,144.961861,Melbourne
633,Soma Rooftop,1977209,,,,,,Alice Springs
634,Soma Center,1534723,,,,,,Lake Worth
635,Soma Hub,3561694,,,,-22.786298499999997,-43.30531060000001,Rio de Janeiro
636,Soma 36,812626,,,,,,Portland
637,FivePoint Amphitheatre,3558829,,14800 Chinon,92618,33.67474,-117.71401999999999,Los Angeles
638,Uptown Theater,631,1700.0,"3700 Broadway, Suite 210",64111,39.06115,-94.59053,Kansas City
639,Encore at the Uptown Theater,3333789,,3700 Broadway,64111,39.06085,-94.59118000000001,Kansas City
640,Uptown Theater,1557283,,2014 Genesee Street,13501,43.095256400000004,-75.2438427,Rochester
641,Uptown Theater,809476,,120 Main St,75053,32.74569,-97.00249000000001,Dallas - Fort Worth
642,Crown Uptown Theater,2830333,,3207 E Douglas Ave,67218,37.68598,-97.29848,Wichita
643,Uptown Grill's Playlist Theater,3506724,,601 1st Street,61301,41.32804,-89.09679,Lasalle
644,Uptown Marble Theater,385756,,218 Main St,78654,30.571972,-98.27776899999999,Marble Falls
645,Uptown Theater Conspiracy Room,877161,,3700 Broadway,64111,39.0611494,-94.59052559999999,Kansas City
646,"Valentine Room, Uptown Theater",1349866,,3700 Broadway,64111,39.0611494,-94.59052559999999,Kansas City
647,Indiana Uptown Theater,2071414,500.0,635 Philadelphia Street,15701,40.6229287,-79.151877,Indiana
648,Uptown Theater,3245474,,First Street Community Center 221 First Street NE,52314,41.921766999999996,-91.415289,Mount Vernon
649,"Nowhere Bar, Uptown Theater",1042916,,,,,,Kansas City
650,Uptown Theater,120538,,,,,,Philadelphia
651,The Uptown Theater,4174384,,,,,,Richland
652,Heaven at The Masquerade,1244831,,75 MLK Jr Drive SW,30303,33.75103,-84.39028,Atlanta
653,Rose Music Center at The Heights,2876978,,6800 Executive Blvd.,45424,39.87035,-84.10836,Dayton
654,SouthWest Florida Event Center,3426814,,11515 Bonita Beach Road SE,34135,26.330509999999997,-81.76194,Bonita Springs
655,Coralville Center for the Performing Arts,3260934,,1301 5th St.,52241,41.67657,-91.58103,Coralville
656,South Orange Performing Arts Center (SOPAC),9444,,1 SOPAC Way,07079,40.74608,-74.26094,Newark
657,Johnny Mercer Theatre,513021,,301 W Oglethrope,31401,32.07736,-81.09676,Augusta
658,"Grandstand, South Dakota State Fair",1448,,890 3rd Street SW,57350,44.363279999999996,-98.2289,Sioux Falls
659,Flavet Field Bandshell,87730,,2307 Woodlawn Street,32603,29.64604000000001,-82.35540999999998,Jacksonville
660,Virginia Credit Union Live! at Richmond Raceway,3795919,,600 E Laburnum Avenue,23222,37.58636,-77.42246,Richmond
661,Virginia Credit Union Live,4185974,,,,,,Richmond
662,The Fillmore,6239,1200.0,1805 Geary Boulevard,94115,37.784259999999996,-122.4333,SF Bay Area
663,The Fillmore Detroit,785,2900.0,2115 Woodward Ave.,48201,42.33781,-83.05173,Detroit
664,The Fillmore Silver Spring,1448428,2000.0,8656 Colesville Road,20910,38.997479999999996,-77.02793,Washington
665,The Fillmore Charlotte,68889,2000.0,820 Hamilton St.,28206,35.23942,-80.84584,Charlotte
666,The Fillmore Miami Beach at Jackie Gleason Theater,244628,2700.0,1700 Washington Ave.,33139,25.792920000000002,-80.13314,Miami
667,The Fillmore Philadelphia presented by Cricket Wireless,3019369,,29 East Allen Street,19123,39.96609,-75.13663000000003,Philadelphia
668,Theatre of Living Arts (TLA),28639,800.0,334 South Street,19147,39.941309999999994,-75.14868,Philadelphia
669,The Foundry at the Fillmore,3229064,,29 E Allen St,19123,39.96609,-75.13663000000003,Philadelphia
670,The Fillmore Poster Room,1511043,,1805 Geary Blvd.,94115,37.7842566,-122.43329609999999,SF Bay Area
671,The Underground - Fillmore Charlotte,3345759,,820 Hamilton St,28206,35.2403,-80.84531,Charlotte
672,The Fillmore,4113329,,,,,,New Orleans
673,The Fillmore,1521813,,310 N Fourth Street,54403,44.9592011,-89.6269379,Madison
674,The Fillmore Room,3194324,120.0,146 10th Avenue.,10011,40.745237100000004,-74.00566490000001,New York
675,The Millard Fillmore Presidential Library,3051254,150.0,15617 Waterloo Rd,44110,41.5713,-81.57127,Cleveland
676,The Fillmore,4338662,,29 E Allen St,19123,39.965559999999996,-75.13506,Philadelphia
677,The Fillmore South,3534369,,5425 Appalachian Hwy,30513,34.8769809,-84.2995417,Blue Ridge
678,The Fillmore,72334,,,,,,Sacramento
679,The Fillmore,1961434,,,,,,Springfield
680,"The Doors Live-bar, Fillmore Spiritual Rock Auditorium",636061,,,,,,Tokyo
681,The Fillmore Pub,3455884,,1004 E. 15th St.,75074,33.019467999999996,-96.70034100000001,Plano
682,The Fillmore At Irving,129772,,,,,,Atlanta
683,The Billmore,302636,,,,,,Denver
684,The Fillmore,4336669,,,,,,Washington
685,The Cubby Bear,1218,,956 West Addison Street,60613,41.9472517,-87.6540783,Chicago
686,Cubby Bear North,6603,,21661 N. Milwaukee Av.,60069,42.1791653,-87.9253277,Chicago
687,Cubby Bear Wrigleyville,1037436,,1059 W. Addison,60660,41.947097799999995,-87.656758,Chicago
688,Cubby Bear Chicago,2010279,,1059 W. Addison,,41.947097799999995,-87.656758,Chicago
689,Cubby Bear Lounge,1068091,,,,,,Chicago
690,"Merrill Auditorium, Portland City Hall",449,1900.0,20 Myrtle St.,04101,43.6595228,-70.2571026,Portland
691,The Portland Hunt + Alpine Club and Merrill Auditorium,3289559,,75 Market Street,04101,43.658138799999996,-70.2543117,Portland
692,Merrill Auditorium,3704779,,1551 South Monroe Street,80210,39.6885167,-104.94637479999999,Denver
693,Greek Theatre-U.C. Berkeley,4012004,,,94720,37.87015,-122.25946,SF Bay Area
694,Fox Theatre,1451,500.0,1135 13th Street,80302,40.0079953,-105.2762858,Denver
695,Fox Theatre,38410,,660 Peachtree Street Ne,30308,33.7726665,-84.3849723,Atlanta
696,Fox Theatre,873221,5174.0,2211 Woodward Avenue,48201,42.338547999999996,-83.05207,Detroit
697,The Fabulous Fox Theatre,796411,4500.0,527 North Grand,63103,38.62940379999999,-90.23553670000001,St Louis
698,Fox Tucson Theatre,15198,,17 West Congress,85702,32.222005100000004,-110.9716022,Tucson
699,Visalia Fox Theatre,677611,1280.0,300 W. Main St.,93291,36.330413,-119.294898,Fresno
700,Little Fox Theatre,33008,,2215 Broadway St.,94063,37.486,-122.22958700000001,SF Bay Area
701,The Warfield,949,2250.0,982 Market Street,94102,37.7826598,-122.4101811,SF Bay Area
702,Fox Theatre,2808953,,2215 Broadway,94063,37.48633,-122.22963,SF Bay Area
703,Fox Theatre,60487,,,,,,San Diego
704,Fox Theatre & Cafe,4012109,,,80303,40.00054,-105.20778,Denver
705,Hanford Fox Theatre,28777,,326 North Irwin Street,93230,36.3285159,-119.64765690000002,Fresno
706,Fox Theatre,874841,,18 East 1st Avenue,67501,38.0538,-97.9309,Wichita
707,Fox Theatre,182218,,1001 W. Sprague Ave.,99201,47.656861,-117.427199,Spokane
708,Fox Theatre - Atlanta,4162639,,,30308,33.7717,-84.3726,Atlanta
709,Fox Theatre,72215,,,,,,Portland
710,Saban Theatre,68885,1897.0,8440 Wilshire Blvd.,90211,34.0647339,-118.374971,Los Angeles
711,Fox Theatre,11483,,242 Main Street,,37.952559,-121.287503,Stockton
712,Fox Pavilion Theatre,415616,,1202 Main,67601,38.873130700000004,-99.3292896,Hays
713,Egyptian Ballroom at Fox Theatre,865791,,660 Peachtree St Ne,30308,33.7726665,-84.3849723,Atlanta
714,Big Fox Theatre,2097859,2000.0,2215 Broadway,94063,37.486,-122.22958700000001,SF Bay Area
715,Fox Theatre,3266739,,,06339,41.444959999999995,-72.01126,Mashantucket
716,Fox Venice Theatre,74434,,,,,,Los Angeles
717,Terry Fox Theatre,245913,336.0,1260 Riverwood Gate,V3B 7Z5,49.26283,-122.75041,Vancouver
718,Fabulous Fox Theatre - Atlanta,4013039,,,30308,33.7717,-84.3726,Atlanta
719,Michael J. Fox Theatre,570821,,7373 MacPherson Ave.,V5J 2B7,49.216254,-122.98464369999999,Vancouver
720,Centralia Fox Theatre,1097326,,119 S. Tower Ave.,98531,46.7155156,-122.95463459999999,Centralia
721,Fox Theatre,2883683,,,,49.28272910000001,-123.1207375,Vancouver
722,Fox Theatre,3112399,,414 Norris,,40.2011956,-100.625831,Mccook
723,Fox Theatre,111435,,,,,,Chicago
724,Fox Theatre,2904503,,,,38.6270025,-90.1994042,St Louis
725,Fox Theatre Walsenburg,4021954,400.0,715 Main Street,81089,37.62226,-104.7804,Walsenburg
726,The Fox Theatre,3681854,250.0,2236 Queen Street Rast,M4E 1G2,43.6728767,-79.287302,Toronto
727,Fox Theatre,94682,,,,,,Las Vegas
728,Vox Theatre,2036274,,,,,,Kansas City
729,Fox Theatre Marksville,3453244,,111 S. Washington St.,71351,31.125420000000002,-92.06676999999999,Baton Rouge
730,Blue Fox Drive-in Theatre,2408719,,1403 N. Monroe Landing Rd.,98648,48.261905,-122.682852,Oak Harbor
731,Fox West Coast Theatre,74405,,,,,,Los Angeles
732,Fox Theatre,3043639,,,,37.7749295,-122.4194155,SF Bay Area
733,Mary Lou Meese Theatre (fox Lane High School),2819058,,"632 South Bedford Road, Route 172",10506,41.1944368,-73.67404040000002,Bedford
734,Fox Theatre Alley,3982199,,"150 W 3rd St,",91766,34.056779999999996,-117.7505,Los Angeles
735,Charlotte Metro Credit Union Amphitheatre,3262319,,1000 NC Music Factory Blvd,28206,35.23938,-80.84565,Charlotte
736,The Funky Biscuit,1496413,,303 SE Mizner Blvd,33432,26.346840000000004,-80.08438000000002,Fort Lauderdale
737,Slim's Downtown,126014,,227 S Wilmington St,27601,35.777434299999996,-78.6381176,Raleigh
738,Downtown Raleigh,969071,,203 W. Lenoir St.,27601,35.773,-78.64235,Raleigh
739,Cary Downtown Theatre,2595258,,316 North Academy Street,27511,35.7838794,-78.7812492,Raleigh
740,Cary Downtown Farmers Market,1772203,,Academy and Park Streets,27511,35.7850856,-78.781233,Raleigh
741,Raleigh Downtown Farmers Market,3351049,,Fayetteville Street,,35.766988,-78.6422319,Raleigh
742,Downtown Live,93307,,,,,,Raleigh
743,Downtown Sheraton Ball Room,3160864,,421 S Salisbury St,27601,35.7748635,-78.6399252,Raleigh
744,Downtown Raleigh Warehouse District,67726,,,,,,Raleigh
745,Downtown Raleigh at City Plaza,1875988,,500 Fayetteville Street,27601,35.773554,-78.6399375,Raleigh
746,Downtown Cary,2325889,,W Academy and Park Streets,,35.7850812,-78.78121850000002,Raleigh
747,Downtown Event Center,971041,,14 W. Martin Street,27601,35.7770275,-78.6398251,Raleigh
748,Downtown Rocky Mount Douglas Block,2953068,25000.0,Douglas Block,27801,35.9755324,-77.8301837,Raleigh
749,Zydeco Downtown,2077854,,208 Wolfe St.,27601,35.77618610000001,-78.63627209999999,Raleigh
750,Downtown Music Hall,79090,,,,,,Raleigh
751,Downtown Park,3622749,,319 S. Academy St.,27511,35.783729,-78.78008299999998,Raleigh
752,The Downtown Sports Bar & Grill,1564288,,410 Glenwood Ave,27603,35.7856276,-78.6472963,Raleigh
753,Vinyl Music Hall,624876,,2 S. Palafox St.,32502,30.4126844,-87.215378,Mobile
754,Agora Theatre,122562,1800.0,5000 Euclid Avenue,44113,41.503370000000004,-81.65417,Cleveland
755,Théâtre de l'Agora,591261,,Place De L'agora,91000,48.627947999999996,2.429176,Paris
756,Agora Theatre,65413,,,,,,Springfield
757,Freedom Hall - Kentucky State Fair & Expo Center,626766,,937 Phillips Ln.,40209,38.19505,-85.73832,Louisville
758,Kentucky State Fair & Exposition Center,634,,937 Phillips Lane,40209,38.19505,-85.73832,Louisville
759,"Broadbent Arena, Kentucky State Fair & Expo Center",5093,,937 Phillips Lane,40209,38.1950523,-85.73832409999999,Louisville
760,"Cardinal Stadium, Kentucky State Fair & Expo Center",715591,47925.0,937 Phillips Lane,40209,38.1950523,-85.73832409999999,Louisville
761,Western Kentucky State Fair Convention Center,2525219,,2810 Richard St,42240,36.8630808,-87.5102969,Nashville
762,"Bluegrass Village, Kentucky State Fair",3974069,,Fairgrounds Main Stage,40233,38.19877,-85.74132,Louisville
763,"Mainstage, Kentucky State Fair & Expo Center",1034536,,,,,,Louisville
764,MAPFRE Stadium,888,,One Black & Gold Boulevard,43211,40.009409999999995,-82.99109,Columbus
765,RFK Stadium,3158,46000.0,2400 East Capitol St SE,20003,38.889559999999996,-76.97279,Washington
766,NRG Stadium,2694603,,One Reliant Park,77054,29.68593,-95.40334,Houston
767,AT&T Stadium,50098,111000.0,925 N. Collins St.,76011,32.7479,-97.09291,Dallas - Fort Worth
768,SDCCU Stadium,5344,54000.0,9449 Friars Road,92108,32.78402,-117.12003,San Diego
769,CNE Stadium,46856,,210 Princes’ Blvd.,M6K 3C3,43.632339,-79.4212734,Toronto
770,HBF Stadium,2661718,,Stephenson Avenue,6010,-31.95484,115.77778,Perth
771,ANZ Stadium,35416,,"Edwin Flack Avenue Sydney Olympic Park,",2000,-33.84932,151.06211000000005,Sydney
772,JFK Stadium,43346,,S Broad Street,19148,39.91424470000001,-75.17183259999999,Philadelphia
773,FNB Stadium,1158646,94000.0,,2147,-26.248540000000002,27.854029999999998,Johannesburg
774,MTK Stadium,46895,,,,,,Budapest
775,RDS Stadium,85279,,,,,,Dublin
776,AMI Stadium,203393,,95 Jack Hinton Drive,8011,-43.543611799999994,172.6048119,Christchurch
777,AAMI Stadium,35415,,Cnr West Lakes Boulevard & Turner Drive,5021,-34.877340000000004,138.49386,Adelaide
778,ABSA Stadium,47312,,,,,,Durban
779,KCOM Stadium,341311,,"The Circle, Anlaby Road",HU3 6HU,53.746213600000004,-0.3676031,Hull
780,RDS Stadium,3668649,,,,44.4056499,8.946256,Genoa
781,ANZ Stadium,70048,,,,,,Brisbane
782,QSAC Stadium,499246,,Kessels Road,QLD 4111,-27.55922,153.05484099999995,Brisbane
783,PAO Stadium,61917,,,,,,Athens
784,KC Stadium,100725,,Walton Street,HU3 6HU,53.74729,-0.37459000000000003,Hull
785,RCDE Stadium,4087159,,,,,,Barcelona
786,AEK Stadium,46903,,,,,,Athens
787,MZA Stadium,43711,,,,,,Tokyo
788,WIN Stadium,84562,,Corner Of Crown & Harbour Streets,2520,-34.426511299999994,150.9024458,Wollongong
789,ICE Stadium,251061,,,,,,Nottingham
790,EPRU Stadium,56824,,,,,,Port Elizabeth
791,GMC Stadium,116802,,,,,,St Louis
792,USA Stadium,3087069,,4351 Babe Howard Ave.,38053,35.3377215,-89.91784559999998,Memphis
793,FAU Stadium,3168699,,777 Glades Road,33431,26.3705935,-80.1033298,Fort Lauderdale
794,MIK Stadium,353121,,,,,,Budapest
795,UBC Stadium,51113,,,,,,Vancouver
796,AAMI Stadium,118062,,,,,,Sydney
797,NK Stadium,257851,,,,,,Zagreb
798,TDECU Stadium,2923723,,3847 Holman St,77004,29.7241757,-95.3484969,Houston
799,CVCA Stadium,3208963,,,,41.133944899999996,-81.48455849999998,Akron
800,GPU Stadium,487761,,,,,,Wilmington
801,PCYC Stadium,236973,,,,,,Mackay
802,AIS Stadium,100945,,,,,,Canberra
803,ALTRAD Stadium,3243629,,500 Avenue de Vanières,34070,43.5958834,3.8468532999999994,Montpellier
804,EBB Stadium,4293259,,,GU11 1TS,51.24839,-0.75597,Reading
805,AK Stadium,2602288,,,,5.823201,-55.167880000000004,Paramaribo
806,TIO Stadium,97841,,,,,,Darwin
807,CMGI Stadium,170438,,,,,,SF Bay Area
808,JD Stadium,2942398,,Gigg Lane,BL9 9HR,53.5804806,-2.2949624,Manchester
809,RVRHS Stadium,3240409,4000.0,Jacksonville Road,,40.007248600000004,-74.7795112,Browns Mills
810,HBF Stadium,4338209,,"100 Stephenson Avenue, Mt Claremont",6010,-31.952709999999996,115.78506000000002,Perth
811,ARM Stadium,3774814,,,,41.9973462,21.4279956,Skopje
812,Lazy Gators,1440343,,132 Sweet William Road,65049,38.20837,-92.74858,Springfield
813,Shady/Lazy Gators,3924979,,132 Sweet William Rd,65049,38.2083315,-92.74851770000001,Springfield
814,Snoqualmie Casino,497741,,37500 SE North Bend Way,98065,47.5188976,-121.84175090000001,Snoqualmie
815,Snoqualmie Casino Ballroom,4140884,,37500 SE North Bend Way,98065,47.5189,-121.84175,Snoqualmie
816,Seven Peaks Music Festival,4219389,,15264 County Road 350,81211,38.84681,-106.15666,Buena Vista
817,Seven Peaks,3872964,,15264 County Road 350,81211,38.84687,-106.15666,Buena Vista
818,Hampton Beach Casino Ballroom,486,,169 Ocean Boulevard,03842,42.909720899999996,-70.8109439,Manchester
819,Rumba Café,14551,200.0,2507 Summit St.,43202,40.0147527,-83.0002705,Columbus
820,Rumba Café,1310121,,"2443 18th St., Nw",,38.9216209,-77.04212209999999,Washington
821,Cafe Rumba,123145,,,,,,Oulu
822,Rumba Café Bar,2147664,,,,,,Santo Domingo
823,Wolf Creek Amphitheater,1474753,,3025 Merk Rd.,30349,33.666956,-84.563388,College Park
824,Brooklyn Mirage,3038314,,140 Stewart Ave.,11237,40.7107,-73.92622,New York
825,Brooklyn Mirage - Avant Gardner,4246999,,140 Stewart Ave,11237,40.710679999999996,-73.92635,New York
826,Brooklyn Mirage 2.0,3296719,,,,,,New York
827,Brooklyn Mirage - Gardner Entrance,4342556,,111 Gardner Ave,11237,40.71103,-73.92528,New York
828,The Grasshopper Underground & Studio,3400099,,"22757 Woodward Ave, Ferndale",48220,42.4604295,-83.1350015,Detroit
829,Tin Roof - Orlando,2872143,,8371 International Drive,32819,28.4438,-81.46916,Orlando
830,Sydney Goldstein Theater,4338773,,275 Hayes St,94102,37.776959999999995,-122.42081999999999,SF Bay Area
831,Sydney Goldstein Theater,4338771,,275 Hayes St,94102,37.776959999999995,-122.42081999999999,San Diego
832,House of Blues Boston presented by Cricket Wireless,50095,2400.0,15 Lansdowne St.,02215,42.34735,-71.09567,Boston / Cambridge
833,"Sangamon Auditorium, University of Illinois",762,,4900 Shepherd Rd.,62703,39.7204052,-89.615845,Springfield
834,Sangamon State University Auditorium,52942,,,,,,Springfield
835,Sangamon Auditorium Public Affairs Center,4146974,,1 University Plz,62703,39.72607,-89.61869,Springfield
836,Heymann Performing Arts Center,1446,,1373 South College Rd.,70503,30.20188,-92.02081,Baton Rouge
837,State Theatre,51960,1569.0,404 South Burdick Street,49007,42.2884574,-85.583096,Grand Rapids
838,Carnegie Library Music Hall of Homestead,6680,,510 E. Tenth Av.,15120,40.40701,-79.90295,Pittsburgh
839,Theater of the Clouds at Moda Center,4272979,,One Center Court,97227,45.53157,-122.66684,Portland
840,The Nick,5068,250.0,2514 10th Avenue South,35205,33.5054309,-86.790452,Birmingham
841,The Old Nick,1081101,,123 Danforth Ave,M4K 1N2,43.6762626,-79.3577679,Toronto
842,The Nick Rocks,3152349,,2514 10th Ave S,35205,33.5054245,-86.79057490000002,Birmingham
843,The Nick - Al,4306914,,,35205,33.4899,-86.80948000000002,Birmingham
844,The Nick,107490,,,,,,Atlanta
845,The Wick,2525134,,183 Commercial St.,B0P 1E0,45.04241500000001,-64.7350843,Berwick
846,The Lick,1129281,,,,,,Southampton
847,The Nick Ridenour Club,253051,,,,,,St Louis
848,The Rambler Benefit Concert Nick Curran,920496,,,,,,Eindhoven
849,The Wick,617841,,259 Brighton Road,3184,-37.883424,144.996027,Melbourne
850,The Bick,3340509,,El Reno - 117 S Bickford Ave,73036,35.5325227,-97.9534589,Oklahoma City
851,The Wick,122229,,,,,,London
852,The Old Nick,4335813,,"20-22 SANDLAND STREET, HOLBORN",WC1R 4PZ,51.51911,-0.11639000000000001,London
853,Davey's Uptown Ramblers Club,1917,300.0,3402 Main St.,64111,39.065410299999996,-94.5857615,Kansas City
854,Scottsdale Center for the Performing Arts,11463,,7380 E. 2nd Street,85251,33.491820000000004,-111.92241000000001,Scottsdale
855,"Virginia G. Piper Theater, Scottsdale Center for the Performing Arts",129668,,7380 E. Second St.,85251,33.491820000000004,-111.92241000000001,Scottsdale
856,Scottsdale Community College Performing Arts Center,1820263,,,,,,Scottsdale
857,Rupp Arena,974,,432 West Vine Street,40507,38.0491448,-84.5010157,Lexington
858,Silver Creek Event Center - Four Winds Casino,1874883,,11111 Wilson Road,49117,41.78074,-86.70899,Chicago
859,Chapman Music Hall - Tpac,4013309,,,74103,36.15929000000001,-95.99648,Tulsa
860,Haven Nightclub,2739148,,,,39.36428,-74.42293000000002,Philadelphia
861,CT BAR Nightclub,106232,,254 Crown Street,6511,41.306174,-72.9300026,Bridgeport
862,Vanity Nightclub,3867534,,144 Temple Street,06510,41.30572,-72.92817,Bridgeport
863,Raven Nightclub,1242951,,616 E. Golf Rd.,60169,42.049981,-88.0653609,Aurora
864,Pulse Nightclub,2506644,,160 Temple Street,,41.306098,-72.927849,Bridgeport
865,Carl Perkins Civic Center,53434,,400 So. Highland Ave,38301,35.6107,-88.81841,Memphis
866,Carl Perkins Civic Center,128906,,,,,,Rochester
867,Boston Symphony Hall,4431,,301 Massachusetts Avenue,02115,42.34292,-71.08568000000002,Boston / Cambridge
868,"Higginson Hall, Symphony Hall",3861649,,301 Massachusetts Avenue,02115,42.3428213,-71.0857304,Boston / Cambridge
869,Symphony Hall,4025864,2600.0,158 Brighton Ave.301 Massachusetts Ave.,02115,42.35284,-71.1326,Boston / Cambridge
870,Bert Ogden Arena,3955064,,4900 S 169,78539,26.254009999999997,-98.17239000000001,Brownsville
871,Park Theater,3410514,,3770 Las Vegas Blvd S,89109,36.10502,-115.17358999999999,Las Vegas
872,Gramercy Theatre,502461,600.0,127 E. 23rd St.,10010,40.7397719,-73.9849309,New York
873,Park Theater,444266,,15791 U.S. 63,54843,46.01869,-91.47563000000001,Hayward
874,Hollywood Casino Amphitheatre,533,28600.0,19100 S. Ridgeland Ave.,60477,41.542609999999996,-87.77115,Chicago
875,"Pines Theater, Look Memorial Park",872,,300 N Main St.,01062,42.34323,-72.68108000000002,Springfield
876,"Miller Outdoor Theater, Hermann Park",86221,,6000 Hermann Park Dr.,77030,29.719141600000004,-95.3872687,Houston
877,Theater im Park,521171,,Am Kurpark,32545,52.20297,8.796560000000003,Bad Oeynhausen
878,Theater Am Park,587791,,Ludwigstrasse 21,61231,50.36813,8.7454,Bad Nauheim
879,Park Theater,3975104,,14 Park St,12801,43.30849,-73.64373,Burlington
880,"Elizabeth Theater, Park Bar",2053839,,2040 Park Ave.,48226,42.336795,-83.05283349999998,Detroit
881,Theater Het Park,120189,,,1621LE,52.6417076,5.0526195,Hoorn
882,"Joseph F. Wheeler Theater, Fort Worden State Park",3221554,,25 Eisenhower Ave.,98368,48.1341834,-122.76905359999998,Port Townsend
883,Theater Haus Im Park,1458678,,Gräpelweg 8,21029,53.489169999999994,10.21879,Hamburg
884,Hyde Park Theater,246483,,,,,,Austin
885,Park Theater,2367889,1000.0,gymnastiriou,60100,40.2697057,22.499304000000002,Kateríni
886,Park Theater,1163931,332.0,25 North Madison Ave,47265,39.006169799999995,-85.6243586,Louisville
887,Lark Theater,518621,,549 Magnolia Ave.,94939,37.937059999999995,-122.53503,SF Bay Area
888,Park La Brea Theater,1094776,,475 S. Curson Avenue,90036,34.067006299999996,-118.3559362,Los Angeles
889,Caponi Art Park's Theater in the Woods,3882279,,1220 Diffley Rd,55123,44.80366,-93.15424,Twin Cities
890,Theater am Park,4138459,,Frankenholzer Weg 4,12683,52.51116,13.56499,Berlin
891,Yarrow Hotel Theater 1,829441,,2001 Park Avenue,84060,40.662333000000004,-111.51324199999999,Salt Lake City
892,Oak Park Theater,954281,,,,,,Minot
893,Park Theater,3429489,,Linggstraße 2,87435,47.7245376,10.3146892,Kempten
894,The Palace Theater at Adventureland Park,3717329,,Highway 65 and I-80,50317,41.6599225,-93.5231692,Des Moines
895,Park Theater,681896,,,,,,SF Bay Area
896,"Hamlin Park Fieldhouse Theater, Second Floor",2831398,,3035 North Hoyne,60618,41.9370863,-87.6805212,Chicago
897,A Work Of Art @  Wildwood Park for the Arts - Cabe Theater,3457154,,20919 County Road 40,72223,34.7680162,-92.4793522,Little Rock
898,Theater in the Park,667451,,,,,,Springfield
899,The Kelsey Theater,4208834,,700 Park Ave,,26.79829,-80.06681,Tampa
900,The Park Theater,3883754,,698 Osborne Street,R3L 2B9,49.862254,-97.131672,Winnipeg
901,North Park Theater,2867058,,,,32.715738,-117.1610838,San Diego
902,Orange Park Community Theater,1466208,,2900 Moody Avenue,32073,30.146178499999998,-81.7521991,Jacksonville
903,Foyer Theater am Park,4055699,,Brückenstrasse 31,53783,50.773709999999994,7.45017,Hennef
904,Hamlin Park Dance Theater,1204296,,3035 N. Hoyne,60618,41.9370863,-87.6805212,Chicago
905,Baronet Theater,80597,,210 5th Avenue,07712,40.2236112,-74.0017156,New York
906,George S. & Dolores Dore Eccles Center Theater,3795419,,1750 Kearns Blvd,84060,40.6675112,-111.4965376,Salt Lake City
907,Lawrence Community Theater,91311,,,,,,Overland Park
908,Botev Academy Theater,3153519,,8120 Carroll Ave,20912,38.99195,-76.995657,Washington
909,"Lawrence Jones Middle School, Theater",3677174,,5154 Snyder Lane,94928,38.3511044,-122.68274579999999,Santa Rosa
910,"Good Time Theater, Knott's Berry Farm",81398,,,,,,Los Angeles
911,White Theater at the Jcc,2816153,,5801 W 115th St.,66210,38.9205903,-94.70814859999999,Overland Park
912,Palazzo 16 Theater,2015034,,8601 West 135th Street,66223,38.881395,-94.683748,Overland Park
913,The Hall Theater,981761,,,,,,Highland Park
914,Upstate Theater,3146009,,,,42.844668,-73.8183804,Springfield
915,Armory Square Theater,2748398,,203 Park Avenue South,56470,46.9210062,-95.0584297,Brainerd
916,The Spaa Theater & Performing Arts,3430964,,371 Artists Walk,60466,41.4823993,-87.67980279999998,Chicago
917,Madison Street Theater,4335030,,1010 Madison St,60302,41.87985,-87.80041999999996,Chicago
918,Linger Longer Outdoor Theater at Worthington Park,3333229,,151 Columbia Street,98376,47.828272999999996,-122.87596200000002,Seattle
919,Mineral Area College Fine Arts Theater,3653934,,5270 Flat River Road,63601,37.84479870000001,-90.48030229999999,Park Hills
920,Theater in the Park at Shawnee Mission Park,4011629,,7710 Renner Rd,66217,38.99067,-94.77964,Overland Park
921,Veterans United Home Loans Amphitheater,47247,20000.0,3550 Cellar Door Way,23456,36.76867,-76.10195999999998,Norfolk
922,The Mountain Winery,625,2500.0,14831 Pierce Road,95070,37.25909,-122.05537,SF Bay Area
923,Mountain Winery,48479,,10 Avenue Of The Flags,94903,38.00242,-122.53353999999999,SF Bay Area
924,Topa Mountain Winery,3330564,,821 W. Ojai Ave,93023,34.442783,-119.25670900000001,Ojai
925,Oak Mountain Winery,1421808,,36522 Vía Verde,,33.517583,-117.02064979999999,San Diego
926,Mountain View Winery,2072884,,1040 Court Street,94901,37.97379760000001,-122.5270041,SF Bay Area
927,Yonah Mountain Winery,2929268,,1717 Highway 255 S,30528,34.6131601,-83.6929667,Cleveland
928,Wolf Mountain Vineyards And Winery,458341,,,,,,Dahlonega
929,Galil Mountain Winery,2672818,,,,33.077239,35.454291,Tiberias
930,Mountain Vista Winery & Vineyards,3972354,150.0,10013 8th St,91730,34.091423299999995,-117.58764529999999,Los Angeles
931,Badger Mountain Vineyard Powers Winery,4340934,,1106 North Jurupa Street,99338,46.213190000000004,-119.2865,Spokane
932,Broad Mountain Winery - Halifax Location,4215909,,596 Harman Rd,17032,40.52913,-76.78886,Halifax
933,"Mountain View Vineyard, Winery & Brewery",4220539,,2332 Walters Rd,18360,40.95926,-75.32853,Stroudsburg
934,Cascade Mountain Winery,3614954,,,,41.8492599,-73.5567918,Amenia
935,Rock & Roll Hotel,10865,400.0,1353 H St. NE,20002,38.9000902,-76.98657790000001,Washington
936,Rock N Roll Hotel,4028939,,,,,,Washington
937,Rock And Roll Hotel,448041,,,,,,Columbia
938,Shrine Auditorium,3034,6300.0,649 W. Jefferson Blvd.,90007,34.02259,-118.28126,Los Angeles
939,The Hideaway,1082701,,"2 Empire Mews, Stanthorpe Road, Streatham",SW16 2ED,51.4272,-0.13083,London
940,The Hideaway,107642,,235 E. Main Street,37604,36.31698,-82.3514,Knoxville
941,The Hideaway Cafe,800861,,1756 Central Ave,33712,27.770809000000003,-82.65757099999998,St Petersburg
942,The Hideaway,608281,,3122 Dunvale,77063,29.730053899999998,-95.51427340000001,Houston
943,The Hideaway Neighbourhood Bar & Kitchen,2016849,,"114 Junction Rd, Islington",N19 5LB,51.5610717,-0.137183,London
944,The Hideaway,1927614,,188 Brunswick St,4006,-27.456069399999997,153.0321173,Brisbane
945,The Hideaway,2765283,,5100 I-55 North,39211,32.366659999999996,-90.14931999999999,Jackson
946,The Hideaway Bar & Grill,2475019,,2565 Franklin Blvd,95818,38.55592,-121.47546000000001,Sacramento
947,The Hideaway,37219,,3269 Teal Rd.,47909,40.39552370000001,-86.8592913,Indianapolis
948,The Hideaway,119415,,,,,,Saint Catharines
949,The Hideaway,3381319,,540 Willis Avenue Salina,67401,38.811018,-97.618175,Wichita
950,The Hideaway Cafe,3305824,,200 North Braddock Street,,39.1868658,-78.1660662,Winchester
951,The Hideaway,2432589,,3369 Thom Blvd,89130,36.220059899999995,-115.21256000000001,Las Vegas
952,The Hideaway,3078904,,30 grove street,06877,41.28589570000001,-73.49450920000002,Bridgeport
953,The Hideaway Pub,1146651,,995 Lakeshore Drive Northeast,V1E 1E4,50.698415000000004,-119.29616000000001,Kamloops
954,The Hideaway,4145394,250.0,21 W Las Olas Blvd,33301,26.11962,-80.1443,Fort Lauderdale
955,The Hideaway,2250659,,548 County Line Road,,42.993681,-76.9637693,Newark
956,The Hideaway,2386109,,,,,,Jasper
957,The Hideaway,405881,,,,,,Winter Park
958,The Hideaway,36182,,427 Hewitt,,34.0427402,-118.23548670000001,Los Angeles
959,The Hideaway On Dunvale,4003269,200.0,3122 Dunvale Rd,77063,29.73009,-95.51446,Houston
960,The Hideaway,340056,,,,39.952335,-75.16378900000002,Philadelphia
961,The Hideaway,87057,,,,,,Boston / Cambridge
962,The Hideaway,3049429,,781-85 Evergreen Walk,Fire Island,40.6493212,-73.1553645,Ocean Beach
963,The Hideaway Speakeasy,1632993,,5A Mill St,TQ7 1ED,50.283550899999994,-3.7774056000000003,Kingsbridge
964,The Hideaway Club,556181,,,,,,Oklahoma City
965,The 615 Hideaway,4275954,,,,,,Tennessee
966,The Hideaway Bar & Grill,3833719,,"2002 Main St. OROVILLE, WA",98844,48.939301,-119.4357301,Tonasket
967,The Hideaway,742651,,,,,,Edmonton
968,The Hideaway,3668034,,114 Junction Road,N19 5LB,51.5610925,-0.137243,London
969,The Hideaway,3888319,,"364 W Lake Dr, Montauk, NY",11954,41.0670565,-71.93918459999998,Montauk
970,The Hideaway,3492229,,,,39.0839981,-76.70024620000002,Baltimore
971,The Hideaway,3516579,,23227 Mountain Hwy E,98387,47.0450833,-122.38928290000001,Tacoma
972,The Hideaway,4039694,,219 SE MAIN ST,,44.984559999999995,-93.25419000000001,Twin Cities
973,The Hideaway Pub,657056,,,,,,North Bay
974,The Hideaway at Pagliacci's Ristorante,1394328,,44 S. Pearl St.,,42.64848170000001,-73.7537069,Springfield
975,The Zoo + the Hideaway + Black Bear Lodge,2105264,,,4006,-27.4565,153.0345,Brisbane
976,The Hideaway,3547469,,802 E Main St,46933,40.4878986,-85.6000095,Indianapolis
977,The Hideaway at Blu,3133764,,20 W. Louisiana St,46225,39.763036799999995,-86.1590196,Indianapolis
978,The Hideaway,3505114,,,,32.715738,-117.1610838,San Diego
979,The Hideaway,3875319,,,,,,St Petersburg
980,The Hideaway,3615259,,2565 Franklin Boulevard,95818,38.5560419,-121.475567,Sacramento
981,The Observatory - San Diego,4012094,,,92104,32.73987,-117.12058999999999,San Diego
982,The Observatory (sd),4280629,,,,,,San Diego
983,The Circuit of the Americas (cota) Lot A,3791734,,9201 Circuit of the Americas Blvd.,78617,30.1341647,-97.6384294,Austin
984,Moose's Tooth Pub & Pizzeria,30389,,3300 Old Seward Hwy,99503,61.190490000000004,-149.86921,Anchorage
985,"Jabbawockeez Theater, MGM Grand Hotel & Casino",3100139,,3799 Las Vegas Blvd South,89109,36.10292000000001,-115.16976000000001,Las Vegas
986,Union Transfer,1392958,1000.0,1024 Spring Garden St.,19123,39.9616234,-75.155307,Philadelphia
987,Aragon Ballroom,837,4500.0,1106 W. Lawrence Ave.,60640,41.9692552,-87.6579453,Chicago
988,Aragon Ballroom,711371,,,,,,Cleveland
989,North Iowa Community College,295406,,,50401,43.15357,-93.20104,Mason City
990,North Iowa Area Community College,1931534,,500 College Drive,50401,43.15598,-93.13192,Mason City
991,Biltmore Estate,16304,,1 Approach Rd,28803,35.54153,-82.5525,Knoxville
992,"Deerpark Restaurant, Biltmore Estate",2308659,,1 Lodge St.,28803,35.5405722,-82.55232170000002,Knoxville
993,"Cedric's Tavern, Biltmore Estate",887386,,1 Approach Road,28803,35.5415329,-82.5525,Knoxville
994,Antler Hill Village @ Biltmore Estate,1965424,,Antler Hill Road,28803,35.5556008,-82.5749069,Knoxville
995,"Deer Park, Biltmore Estate",307116,,Town Square Blvd.,,35.4849121,-82.5558233,Knoxville
996,Orpheum Theatre,4498,,200 North Broadway,67202,37.688043900000004,-97.3353575,Wichita
997,"Shubert Theatre, Boch Center",239453,,265 Tremont Street,02116,42.3504,-71.0654,Boston / Cambridge
998,Shubert Theatre-ma,4013389,,,02116,42.35307,-71.07652,Boston / Cambridge
999,"Virginia G. Piper Theater, Scottsdale Center for the Performing Arts",129668,,7380 E. Second St.,85251,33.491820000000004,-111.92241000000001,Scottsdale
1000,The Wonder Bar,64612,,256 South Center Street,82601,42.8476917,-106.325326,Cheyenne
1001,The New New Underground Wonder Bar,1584038,,650 North Dearborn,60654,41.8938604,-87.629915,Chicago
1002,The Wonder Bar,129778,,,,,,Spokane
1003,The Dockside Bar And Grill,414396,,,,,,Wonder Lake
1004,Austin City Limits Live at The Moody Theater,1182661,2750.0,310 W Willie Nelson Boulevard,78701,30.265359999999998,-97.74727,Austin
1005,Moody Theater - Austin TX,4011919,,,78704,30.24567,-97.76884,Austin
1006,Moody Theater,2045924,,310 W. Willie Nelson Blvd.,78701,30.265359999999998,-97.7473,Austin
1007,Ponyboy,4017074,,632 Manhattan Ave,,40.72398,-73.95079,New York
1008,Ponyboy OKC,4337925,120.0,423 NW 23rd St,73103,35.49342,-97.52009,Oklahoma City
1009,Ponyboy,4337923,,,73103,35.49007,-97.51931,Oklahoma City
1010,"Pruis Hall, Ball State University",2779,,2000 W. University Ave.,47306,40.19723,-85.40884,Indianapolis
1011,Seven Feathers Hotel & Casino,4264539,,,97417,42.92734,-123.28116999999999,Canyonville
1012,Chase Center,4223659,,500 Terry A Francois Boulevard,94158,37.77037,-122.38712,SF Bay Area
1013,Chase Center,1875018,,815 JUSTISON ST,19801,39.7309984,-75.5631641,Wilmington
1014,"Chase Room, New Jersey Performing Arts Center",820041,,,,,,Newark
1015,Chase Center on the Riverfront,3645679,,815 Justison Street,19801,39.73109,-75.56305,Wilmington
1016,Bethesda Chevy Chase Regional Services Center,1828443,,,20814,39.003887799999994,-77.1053673,Washington
1017,Chevy Chase Community Center,127089,,,,,,Indiana
1018,Chevy Chase Community Center,2404619,,5601 Connecticut Ave. NW,20015,38.9649177,-77.07538829999999,Washington
1019,Friendship Heights Village Center,607321,,4433 South Park Avenue,20815,38.963625,-77.088865,Washington
1020,National 4-h Conference Center,1468963,,7100 Connecticut Ave,20815,38.9810853,-77.0786975,Washington
1021,Daryl's House,2795673,,130 NY 22,12564,41.53392,-73.58426,Pawling
1022,Daryl's House Club,2883428,175.0,130 Route 22,12564,41.5339186,-73.58426180000002,Pawling
1023,Live From Daryl's House,2802178,,,12564,41.56204,-73.60263,Pawling
1024,Daryl's House Restaurant & Live Music Club,3010644,,130 Route 22,12564,41.5339186,-73.58426180000002,Pawling
1025,Daryl's House: Backyard,3233534,,130 Route 22,12564,41.5339745,-73.584243,Pawling
1026,Rob & Daryl's House,4200519,,44 Rowe Ave,11563,40.64436,-73.67953,New York
1027,Daryl's House Back Yard,3038099,,130 Route 22,12564,41.5339186,-73.58426180000002,Pawling
1028,Blue Moose Tap House,651011,600.0,211 Iowa Avenue,52240,41.6609,-91.53250799999999,Des Moines
1029,The Bluestone,1121446,,101 Mair Street,3350,-37.560123,143.85886599999995,Ballarat
1030,The Bluestone Tavern,1003566,,,,,,Cumberland
1031,Herman's Hideaway,4753,,1578 South Broadway,80210,39.6879727,-104.9873507,Denver
1032,Upstate Concert Hall,1875963,,1208 Route 146,12065,42.868706,-73.823268,Springfield
1033,Villa Hispana Pavilion at Expo Nm,3780934,,300 San Pedro NE,87108,35.08242,-106.57263,Albuquerque
1034,Trees,43481,,2709 Elm Street,75226,32.78461,-96.78442,Dallas - Fort Worth
1035,Trees Organic Coffee - Granville Street,551616,40.0,450 Granville St.,V6C 1V4,49.284836999999996,-123.11418459999999,Vancouver
1036,Trees,1896413,,1502 8th St,94607,37.80693,-122.29581100000001,SF Bay Area
1037,Tenants of the Trees,3117979,,2808 Hyperion Ave,90027,34.1081537,-118.271573,Los Angeles
1038,2000 Trees Festival,2918818,,,,51.899390000000004,-2.07825,Cheltenham
1039,Trees Lounge,1356516,,4-484 Kuhio Highway # 1,96746,22.0549546,-159.3283944,Honolulu
1040,Tall Trees,136633,,Tolcarne Road,TR7 2NQ,50.41572,-5.07474,Plymouth
1041,Three Trees Coffeehouse,614666,,118 W Holly St,98225,48.7500392,-122.47958,Seattle
1042,Trees - Din Productions,3234619,,"2709 Elm St, Dallas",75226,32.784729999999996,-96.78447,Dallas - Fort Worth
1043,Trees Organic Coffee - Gastown,1028466,,321 Water Street,V6B 1B8,49.284431299999994,-123.10934679999998,Vancouver
1044,Between the Trees,3513379,,,CF83 3DF,51.5764425,-3.1633124,Caerphilly
1045,Trees,647956,,,,,,Houston
1046,Trees Lounge (Southside),3975379,,TBA,,37.532083,-77.428787,Richmond
1047,Blues Under the Trees,877271,,,,,,Fort Dodge
1048,Music Under the Trees,3966404,,,,,,Seattle
1049,Trees & Club Dada,3136339,,2700 Block of Elm Street,,32.7842534,-96.78563759999999,Dallas - Fort Worth
1050,Trees Organic Coffee - Yaletown,1212321,,1391 Richards St.,V6B 3G7,49.2740653,-123.127273,Vancouver
1051,Trees Restaurant at Hunter's Ridge,2350809,,20510 SW Roy Rogers Rd #160,97140,45.371642,-122.84506299999998,Portland
1052,"Trees, Club Dada, & Three Links",3220579,,2700 Block of Elm Street,75226,32.78425,-96.78564,Dallas - Fort Worth
1053,ClubM,660446,7000.0,Green Lane,TS15 9PE,54.4961171,-1.3445716,Yarm
1054,Two Trees,3510569,200.0,30 Union Street,PL1 3EX,50.3698181,-4.1501470000000005,Plymouth
1055,Cherry Trees,797316,,"32 Station Rd, South Norwood",SE25 5AG,51.3974896,-0.0752066,London
1056,Three Trees,745571,,,,,,Milton Keynes
1057,Trees Dispensary,3375879,,2610 Rock Bay Ave,V8T4R7,48.43691810000001,-123.36948340000001,Victoria
1058,Festival of Trees,1558943,,Tbd,,47.5742057,-122.2946018,Tacoma
1059,Jam in the Trees,3972114,,150 Eastside Drive,28711,35.607923,-82.358611,Black Mountain
1060,Jam in the Trees,3819389,,Pisgah Brewing 172 Beaverdam Road,28804,35.60792,-82.35861,Knoxville
1061,Twin Trees Hotel,2967843,,Downhill Road,,54.1173914,-9.1377623,Ballina
1062,Goodgreef @ Tall Trees,1610978,,,TS15 9PE,54.488541399999995,-1.3651524,Yarm
1063,The Bean Trees,4311019,,3601 Hartford Road,37753,35.81619,-83.14489,Knoxville
1064,"Reggae in the Trees, Provolt",2658263,,14390 Hwy. 238,97527,42.2857523,-123.2273938,Grants Pass
1065,Tall Trees Amphitheatre,3044769,,"Monroeville Community Park, Tillbrook Rd",15146,40.421082299999995,-79.7670668,Pittsburgh
1066,Place In The Trees,2427354,,,,,,Aurora
1067,Trees Organic Coffee & Roasting House,4000089,,450 Granville St,V6C 1V4,49.284890000000004,-123.11433999999998,Vancouver
1068,City Sounds - Eagle St Fig Trees,3042029,,,,-27.4710107,153.0234489,Brisbane
1069,Silver Trees,3143099,,,,52.486243,-1.8904009999999998,Birmingham
1070,Trees Tavern Tokoroa,3899439,,1 Balmoral Drive,3420,-38.2334646,175.87928530000005,Tauranga
1071,Temple Nightclub,4012139,,1136 Broadway,80203,39.73445,-104.98700000000001,Denver
1072,Temple Nightclub,4034874,,,,,,SF Bay Area
1073,"Carver Arena, Peoria Civic Center",3130764,,201 SW Jefferson Ave,61602,40.692009999999996,-89.59425999999998,Aurora
1074,Fitz Casino Tunica,18092,,711 Lucky Lane,38664,34.82643,-90.34307,Memphis
1075,Lost Lake Lounge,1016861,,3602 E. Colfax,80206,39.73999050000001,-104.94475520000002,Denver
1076,Creep Records Store,2264904,,"1050 North Hancock Street, Suite 76",19123,39.96644000000001,-75.13958000000002,Philadelphia
1077,Creep Records,4339045,,1050 N Hancock St #76,19123,39.96686,-75.13926,Philadelphia
1078,L.B. Day Amphitheatre,77576,,2330 17th Street NE,97303,44.95748,-123.01115,Salem
1079,Fairfield Theatre Company (FTC),69068,225.0,70 Sanford St.,06824,41.1423405,-73.2575499,Bridgeport
1080,Concord Pavilion,640,12500.0,2000 Kirker Pass Road,94521,37.960355,-121.939656,SF Bay Area
1081,Route 29 Pavilion,2700978,,5650 Sandusky Blvd,28027,35.35216,-80.68958,Charlotte
1082,Pavilion,115991,,,,,,Manchester
1083,Mark G Etess Arena at Hard Rock Hotel & Casino,3874939,,1000 Boardwalk,08401,39.35999,-74.42124,Philadelphia
1084,First Avenue Club,294606,,1550 South 1st Avenue,52240,41.6425643,-91.50305209999999,Des Moines
1085,First Avenue Social Club,3687814,,2310 N First Street,,40.8363441,-96.7194817,Lincoln
1086,City Winery DC,3719779,,1350 Okie St NE,20002,38.91452,-76.98586999999998,Washington
1087,"The Wine Garden, City Winery DC",4326294,200.0,1350 Okie St NE,20002,38.91455,-76.98586,Washington
1088,City Winery,4339096,,,,,,Washington
1089,Weesner Family Amphitheater,4288134,,13000 Zoo Blvd,55124,44.76743,-93.19577,Twin Cities
1090,Cain Park,4952,,Superior & Lee,44118,41.508173,-81.565493,Cleveland
1091,"Evans Amphitheater, Cain Park",56640,,Lee & Superior Rds.,44118,41.508173,-81.565493,Cleveland
1092,"McCain Auditorium, Kansas State University",338651,,207 McCain Aud,66506,39.18717,-96.57991,Overland Park
1093,"Alma Theatre, Cain Park",1334526,,14591 Superior Road,44118,41.507922,-81.562414,Cleveland
1094,"Louie Anderson Theater, Palace Station Hotel & Casino",121018,,2411 W. Sahara Ave,89102,36.144113,-115.175407,Las Vegas
1095,"Osterhout Concert Theater, Anderson Center",309996,,Binghamton University,13902,42.088828,-75.96697209999998,Rochester
1096,Anderson Yiddish Theater,66706,,,,,,New York
1097,"Marian Anderson Theater, Aaron Davis Hall, City College of New York",3054564,,160 Convent Ave,10027,40.819631099999995,-73.95051550000002,New York
1098,Jennie T Anderson Theater,4070414,,548 South Marietta Parkway Southeast,30060,33.94293,-84.53739,Atlanta
1099,Stereo Live Houston,3412914,,6400 Richmond Ave,,29.732229999999998,-95.49848,Houston
1100,Stereo Live,9786,2000.0,6400 Richmond Ave.,77057,29.731767699999995,-95.4986635,Houston
1101,The Terrace at Stereo Live,1456288,,6400 Richmond Ave.,77057,29.7318686,-95.4986658,Houston
1102,In the Loft at Stereo Live,3178624,,6400 Richmond Avenue,77057,29.73222800000001,-95.498482,Houston
1103,Walworth County Fairgrounds,56682,,411 E. Court St.,53121,42.67499,-88.53364,Elkhorn
1104,Fargo Theatre,8505,,314 Broadway,58102,46.87965,-96.78813000000001,Fargo
1105,"Wells Fargo Theatre, Colorado Convention Center",5242,5000.0,700 14th Street,80202,39.7427565,-104.9940015,Denver
1106,Holmes Theatre,239233,837.0,826 Summit Avenue,56501,46.818327399999994,-95.84966779999999,Fargo
1107,Fargo-Moorhead Community Theatre,14554,,,,,,Fargo
1108,Firehall Theatre,973506,,412 2nd Avenue North,58203,47.92560200000001,-97.034572,Fargo
1109,Civic Theatre,128170,,,,,,Fargo
1110,Hansey Theatre,658656,,,,46.8737648,-96.7678039,Fargo
1111,Township Auditorium,3206,,1703 Taylor Street,29201,34.00946,-81.02755,Columbia
1112,"Armstrong Middle School Auditorium, St. James Township",3271374,,"St. James Township, Garden Island",,45.80093460000001,-85.49069899999998,Mackinac Island
1113,The Township Auditorium,2618748,,1703 Taylor Street,,38.940708799999996,-76.9809071,Baltimore
1114,Manheim Township High School Auditorium,2602468,,115 Blue Streak Boulevard,17601,40.10276070000001,-76.29961970000002,Wilmington
1115,Oracle Arena,615,,7000 Coliseum Way,94621,37.7515541,-122.20157150000001,SF Bay Area
1116,SSE Arena,17649,11000.0,2 Queens Quay,BT3 9QQ,54.6038086,-5.9156209,Belfast
1117,SAP Arena,626246,,Xaver-Fuhr-Straße 150,68163,49.46475,8.51793,Mannheim
1118,SNHU Arena,30498,,555 Elm Street,03101,42.98602070000001,-71.463052,Manchester
1119,TUI Arena,35011,,Expo Plaza 7,30521,52.32302,9.81686,Hannover
1120,PNC Arena,1770713,19772.0,1400 Edwards Mill Road,27607,35.803475,-78.72193299999998,Raleigh
1121,RAC Arena,1852538,,"700 Wellington Street, WA 6000",6000,-31.948359999999997,115.85202,Perth
1122,ÖVB Arena,1496193,,Bürgerweide,28013,53.08671,8.81317,Bremen
1123,SKK Arena,73077,,"8, Yu. Gagarina av.",193318,59.919568999999996,30.451465000000002,St. Petersburg
1124,IMPACT Arena,55874,12000.0,"Bangkok Land Building, 99 Popular Road",11120,13.907729999999999,100.49587,Bangkok
1125,BB&T Arena,513066,,500 Louie B. Nunn Dr.,41099,39.03178,-84.46330999999998,Cincinnati
1126,NYNEX Arena,43812,,,,,,Manchester
1127,HDI-Arena,38906,49000.0,Robert-Enke-Straße 1,30169,52.36099,9.7329,Hannover
1128,NRG Arena,2590108,8000.0,1 Reliant Park,77054,29.6848334,-95.4081877,Houston
1129,AIS Arena,92406,5200.0,Leverrier Street,2617,-35.24495,149.10227,Canberra
1130,EWE Arena,38770,,Europaplatz,26123,53.14669,8.22625,Oldenburg
1131,RDS Arena,314201,,Merrion Road Ballbridge,IE,53.321459999999995,-6.21703,Dublin
1132,SIU Arena,5996,,,62901,37.7272727,-89.2167501,St Louis
1133,EWS Arena,516006,,Nördliche Ringstraße 87,73033,48.71,9.64995,Göppingen
1134,WS Arena,3239069,,Varastokatu 9,65100,63.09641,21.63365,Vaasa
1135,NRGI Arena,583701,,Stadion Alle 70,8000,56.132231999999995,10.193546000000001,Aarhus
1136,TECO Arena,57383,,,,,,Cape Coral
1137,BT Arena,3162024,,Strada Uzinei Electrice,400375,46.76623,23.5701,Cluj-Napoca
1138,VTB Arena,3972089,,,,,,Moscow
1139,MTL Arena,94831,,,,,,Samara
1140,SRC Arena,1577779,,"4585 West Seneca Tpk, Onondaga Community College",13205,43.003690999999996,-76.19736999999998,Rochester
1141,HMH Arena,71782,,Arena Boulevard 590,1101DS,52.312357399999996,4.9441509,Amsterdam
1142,IFU Arena,3429599,,Råbyvägen 77,754 26,59.88019,17.65534,Uppsala
1143,ČEZ Arena,96812,,Sukova třída 1735,530 02,50.04026939999999,15.769493599999999,Pardubice
1144,CASA Arena,627156,10400.0,Langmarksvej 65,8700,55.870940000000004,9.85857,Horsens
1145,BUD Arena,3375764,,Ленинградский проспект 31/4,125284,55.784714,37.560007,Moscow
1146,NTC Arena,2455174,,,,48.14589229999999,17.1071373,Bratislava
1147,DBL Arena,1894668,,Jalan Ahmad Yani,60234,-7.3278520999999985,112.7315491,Surabaya
1148,AOL Arena,55931,,Sylvesterallee 7,22525,53.5871,9.8996,Hamburg
1149,Oracle Arena & O.co Coliseum,2589683,,7000 Coliseum Way,,37.7515541,-122.20157150000001,SF Bay Area
1150,NYC Arena,1865623,,91-12 144th Pl.,11435,40.700173,-73.810379,New York
1151,NTSU Arena,3944949,,,,,,Taipei
1152,PGE Arena,1886748,43615.0,Pokoleń Lechii Gdańsk 1,80-560,54.38730820000001,18.636055300000002,Gdansk
1153,MOA Arena,3944934,,,,,,Manila
1154,NKT Arena,3748159,,"Arenavägen 19
