,venue_name,id,capacity,street,zip,latitude,longitude,metro_area,country,city_name
0,Oracle Arena,615,,7000 Coliseum Way,94621,37.7515541,-122.2015715,SF Bay Area,US,Oakland
4,SNHU Arena,30498,,555 Elm Street,03101,42.9860207,-71.463052,Manchester,US,Manchester
5,PNC Arena,1770713,19772.0,1400 Edwards Mill Road,27607,35.803475,-78.721933,Raleigh,US,Raleigh
11,NRG Arena,2590108,8000.0,1 Reliant Park,77054,29.6848334,-95.4081877,Houston,US,Houston
13,BB&T Arena,513066,,500 Louie B. Nunn Dr.,41099,39.03178,-84.46331,Cincinnati,US,Highland Heights
17,SIU Arena,5996,,,62901,37.7272727,-89.2167501,St Louis,US,Carbondale
21,TECO Arena,57383,,,,,,Cape Coral,US,Estero
22,Oracle Arena & O.co Coliseum,2589683,,7000 Coliseum Way,,37.7515541,-122.2015715,SF Bay Area,US,Oakland
27,SRC Arena,1577779,,"4585 West Seneca Tpk, Onondaga Community College",13205,43.003691,-76.19737,Rochester,US,Syracuse
35,NYC Arena,1865623,,91-12 144th Pl.,11435,40.700173,-73.810379,New York,US,Jamaica
41,IMA Arena,110872,,,,,,Detroit,US,Flint
44,DECC Arena,4013174,,,55802,46.7534,-92.06816,Twin Cities,US,Duluth
46,CSU Arena,256256,,,,,,Cleveland,US,Cleveland
47,UTC Arena,332261,,,,,,Charlotte,US,Charlotte
49,LA Arena,401761,,,,,,Los Angeles,US,Panorama City
50,Boondocks Pub,3650229,,2909 N. Dirksen Parkway,62702,39.8461549,-89.6049651,Springfield,US,Springfield
51,Boondocks Pub & Grill,3493509,,,,38.599243,-83.3187952,Manchester,US,Vanceburg
53,The Roxy,928,,279 Tremont Street,02116,42.3500295,-71.0652348,Boston / Cambridge,US,Boston
54,The Roxy Theatre,1300,500.0,9009 W. Sunset Blvd.,90069,34.09071,-118.38797,Los Angeles,US,West Hollywood
55,The Roxy,767556,,7230 West 75th Street,66204,38.9936,-94.66935,Overland Park,US,Overland Park
57,The Roxy,78157,,515 W. 18th St.,10011,40.7451986,-74.0075711,New York,US,New York
58,The Roxy,252001,,2110 E. Highland Ave.,85016,33.5057312,-112.0370168,Phoenix,US,Phoenix
65,The Roxy Lounge,30860,,2549 Welton Street,80205,39.7537204,-104.9796384,Denver,US,Denver
66,The Roxy Encinitas,3499364,,517 S COAST HWY 101,92024,33.0456822,-117.293543,San Diego,US,Encinitas
67,The Roxy Hotel,3120379,200.0,#2 Ave. of the Americas,10013,40.71934,-74.00496,New York,US,New York
69,The Roxy,3159819,,,,39.73924,-104.99025,Denver,US,Denver
73,The Roxy Bamboo Bar,1251081,,927 N. Delaware Ave.,19123,39.96303,-75.135212,Philadelphia,US,Philadelphia
76,The Roxy,4050449,,9009 Sunset Blvd,90069,34.09086,-118.38797,Los Angeles,US,Los Angeles
79,The Roxy Theater,95490,,,,,,San Diego,US,San Diego
81,The Dawn Theater (roxy),1350151,,110 N Broad Street,49242,41.9226363,-84.6320094,Toledo,US,Hillsdale
83,The Roxy Event Center,2687318,,102 S. Joplin Ave,64801,37.0905765,-94.5143051,Springfield,US,Joplin
86,The Roxy,1611553,,909 Vine Street,45202,39.1056639,-84.5141749,Cincinnati,US,Cincinnati
87,The Roxy,3614914,,71 Wall Street,,41.1168744,-73.4138681,Bridgeport,US,Norwalk
88,The Roxy,3333849,,79 Washington Street,02903,41.823807,-71.414551,Providence,US,Providence
89,The Roxy,425941,,,,,,Burlington,US,Burlington
90,The Roxy,107278,,,,,,Tucson,US,Tucson
91,The Roxy,1456158,,367 E Main St,40507,38.042023,-84.491594,Lexington,US,Lexington
92,The Roxy,4341741,,"13419 w 62nd Terrace Shawnee, Ks",66216,39.01534,-94.74159,Overland Park,US,Shawnee
97,The Roxy Theatre,4085449,,,,,,Atlanta,US,Atlanta
99,The Roxy Ballroom,129404,,,,,,Atlanta,US,Atlanta
100,The Roxy Theatre,2455444,,827 Meridian St,,36.185942,-86.767791,Nashville,US,Nashville
101,The Roxy Theater,1642643,,120 N 2nd St,,46.247819,-114.156737,Hamilton,US,Hamilton
102,Tennessee Theatre,683,,604 S. Gay St.,37902,35.964137,-83.917552,Knoxville,US,Knoxville
103,Tennessee Theatre,45121,,,,,,Nashville,US,Nashville
104,Tennessee Williams Theatre,407901,,5901 College Road,33040,24.5843489,-81.744976,Key West,US,Key West
105,"Clarence Brown Theatre, University of Tennessee",978631,,1714 Andy Holt Ave.,37996,35.9534143,-83.930456,Knoxville,US,Knoxville
106,Scheels Arena,1164826,,5225 31st Ave South,58104,46.83555,-96.8761,Fargo,US,Fargo
107,San Manuel Casino,1193,,777 San Manuel Boulevard,92346,34.1503014,-117.2286606,Los Angeles,US,Highland
108,"Rock & Brews, San Manuel Casino",3508014,200.0,777 San Manuel Blvd,92346,34.1504981,-117.229242,Los Angeles,US,Highland
109,Tukut Lounge at San Manuel Casino,4170279,,777 San Manuel Blvd,92346,34.15058,-117.22914,Los Angeles,US,Highland
110,"Murat Theatre, Old National Centre",535651,2681,502 N New Jersey St,46204,39.77465,-86.1515,Indianapolis,US,Indianapolis
111,"Wang Theatre, Boch Center",886876,,270 Tremont Street,02116,42.35003,-71.06523,Boston / Cambridge,US,Boston
112,Boch Center Wang Theatre,4012654,3500.0,270 Tremont St,02116,42.35028,-71.06496,Boston / Cambridge,US,Boston
113,Boch Center/wang Theatre,3978774,,,,,,Boston / Cambridge,US,Boston
114,The Van Buren,3477604,,Van Buren,85003,33.45141,-112.07819,Phoenix,US,Phoenix
115,First St. & Van Buren St.,2962508,,,85004,33.4528292,-112.0685027,Phoenix,US,Phoenix
116,Evan's on Van Buren,3707654,,1714 W. Van Buren St,85007,33.4515503,-112.0964669,Phoenix,US,Phoenix
117,Four Winds Field at Coveleski Stadium,4213994,,,46601,41.6724,-86.25395,Fort Wayne,US,South Bend
118,First Interstate Center for the Arts,4092359,,334 W. Spokane Falls Blvd.,99201,47.66056,-117.41682,Spokane,US,Spokane
119,Sanford Pentagon,2769458,,2210 W. Pentagon Place,57107,43.59094,-96.75555,Sioux Falls,US,Sioux Falls
120,Papa Murphy's Park at Cal Expo,4185369,,,95815,38.59632,-121.4399,Sacramento,US,Sacramento
121,The Fillmore,6239,1200.0,1805 Geary Boulevard,94115,37.78426,-122.4333,SF Bay Area,US,San Francisco
122,The Fillmore Detroit,785,2900.0,2115 Woodward Ave.,48201,42.33781,-83.05173,Detroit,US,Detroit
123,The Fillmore Charlotte,68889,2000.0,820 Hamilton St.,28206,35.23942,-80.84584,Charlotte,US,Charlotte
124,The Fillmore Silver Spring,1448428,2000.0,8656 Colesville Road,20910,38.99748,-77.02793,Washington,US,Silver Spring
125,The Fillmore Miami Beach at Jackie Gleason Theater,244628,2700.0,1700 Washington Ave.,33139,25.79292,-80.13314,Miami,US,Miami Beach
126,The Fillmore Philadelphia presented by Cricket Wireless,3019369,,29 East Allen Street,19123,39.96609,-75.13663,Philadelphia,US,Philadelphia
127,The Foundry at the Fillmore,3229064,,29 E Allen St,19123,39.96609,-75.13663,Philadelphia,US,Philadelphia
128,The Fillmore,4113329,,,,,,New Orleans,US,New Orleans
129,The Fillmore Poster Room,1511043,,1805 Geary Blvd.,94115,37.7842566,-122.4332961,SF Bay Area,US,San Francisco
130,The Underground - Fillmore Charlotte,3345759,,820 Hamilton St,28206,35.2403,-80.84531,Charlotte,US,Charlotte
131,The Fillmore,1521813,,310 N Fourth Street,54403,44.9592011,-89.6269379,Madison,US,Wausau
132,The Fillmore,4338662,,29 E Allen St,19123,39.96556,-75.13506,Philadelphia,US,Philadelphia
133,The Fillmore Room,3194324,120.0,146 10th Avenue.,10011,40.7452371,-74.0056649,New York,US,New York
134,The Millard Fillmore Presidential Library,3051254,150.0,15617 Waterloo Rd,44110,41.5713,-81.57127,Cleveland,US,Cleveland
135,The Fillmore,72334,,,,,,Sacramento,US,Sacramento
136,The Fillmore,1961434,,,,,,Springfield,US,Springfield
137,The Fillmore South,3534369,,5425 Appalachian Hwy,30513,34.8769809,-84.2995417,Blue Ridge,US,Blue Ridge
139,The Fillmore Pub,3455884,,1004 E. 15th St.,75074,33.019468,-96.700341,Plano,US,Plano
140,The Fillmore At Irving,129772,,,,,,Atlanta,US,Atlanta
141,The Billmore,302636,,,,,,Denver,US,Denver
142,Theatre of Living Arts (TLA),28639,800.0,334 South Street,19147,39.94131,-75.14868,Philadelphia,US,Philadelphia
143,Lorain County Fairgrounds,813621,,23000 Fairgrounds Road,44090,41.16454,-82.23148,Wellington,US,Wellington
144,Atlanta Symphony Hall,2471,,1280 Peachtree Street,30309,33.7892284,-84.3849682,Atlanta,US,Atlanta
145,Atlanta Symphony Hall Woodruff Arts Center,3534274,,1280 Peachtree Street,30303,33.78916,-84.38494,Atlanta,US,Atlanta
146,Ford Idaho Center Amphitheater,4007404,,,83687,43.61894,-116.53469,Boise,US,Boise
147,Les Schwab Amphitheater,51605,,520 SW Powerhouse Drive #626,97702,44.04592,-121.31535,Salem,US,Bend
148,Tin Roof - St. Louis,3603774,,1000 Clark Ave.,63102,38.62438,-90.19687,St Louis,US,St Louis
149,Grand Casino Mille Lacs Event Center,629101,,777 Grand Avenue,56359,46.1801794,-93.7588979,Twin Cities,US,Onamia
150,Reggie's Rock Club,540136,300,2109 South State Street,60616,41.8540522,-87.6269514,Chicago,US,Chicago
151,"Wilson Center, Cfcc",4013829,,,28401,34.30237,-77.98529,Fayetteville,US,Wilmington
152,Howard L. Schrott Center for the Arts,2553994,,W 46th St,46208,39.83943,-86.16555,Indianapolis,US,Indianapolis
153,Frederik Meijer Gardens,4523,,1000 E Beltline Ave Ne,49525,42.980255,-85.585592,Grand Rapids,US,Grand Rapids
154,Frederik Meijer Gardens & Sculpture Park,4288599,,,,,,Grand Rapids,US,Grand Rapids
155,Dr. Phillips Center for the Performing Arts,2810648,,445 S Magnolia Ave,32801,28.53774,-81.37745,Orlando,US,Orlando
156,Seneff Arts Plaza at Dr. Phillips Center for the Performing Arts,3516919,,,,28.5383355,-81.3792365,Orlando,US,Orlando
157,Rams Head On Stage,522876,350,33 West St.,21401,38.97831,-76.49463,Baltimore,US,Annapolis
158,ArtsRiot,3126329,,400 Pine St,05401,44.4681,-73.21474,Burlington,US,Burlington
159,Arts Riot Studio,2110809,,400 Pine Street,05401,44.468216,-73.214778,Burlington,US,Burlington
160,Columbia's Live Music Block at Tin Roof & the Senate,4159689,,,20201,34.00071,-81.03481,Columbia,US,Columbia
161,"Shaftman Performance Hall, Jefferson Center",115524,,"541 Luck Ave. SW, Ste. 221",24016,37.26985,-79.95114,Winston-Salem,US,Roanoke
162,Xcite Center at Parx Casino,3730754,,2999 Street Road,19020,40.11817,-74.95339,Philadelphia,US,Bensalem
163,"Dreyfoos Concert Hall, Kravis Center for the Performing Arts",52953,,701 Okeechobee Boulevard,33401,26.706871,-80.0611,Fort Lauderdale,US,West Palm Beach
164,Sunshine Studios Live,1233931,,3970 Clearview Frontage Rd,80911,38.7722519,-104.7399526,Colorado Springs,US,Colorado Springs
165,Sunshine Studios,4074904,,3970 Clear View Frontage Road,80911,38.7742,-104.73961,Colorado Springs,US,Colorado Springs
167,El Club,3237294,,4114 Vernor Hwy,48209,42.3214,-83.09366,Detroit,US,Detroit
168,El 'n' Gee Club,66065,,86 Golden St.,06320,41.3538099,-72.0959999,Providence,US,New London
169,El Potrero Club,35718,,4959 Patata St.,90201,33.95565,-118.18048,Los Angeles,US,Cudahy
170,El Rancho Club,617576,,1450 Monument Blvd .,94520,37.95209,-122.04481,SF Bay Area,US,Concord
171,El Centenario VIP Night Club,2861623,,7990 Monterey Road,95020,37.0162178,-121.5728057,Gilroy,US,Gilroy
172,El Paso Comic Strip Comedy Club,50119,,6633 N Mesa St,79912,31.83327,-106.54158,El Paso,US,El Paso
173,El Club,1320836,,6901 Pacific Blvd.,90255,33.976684,-118.225623,Los Angeles,US,Huntington Park
174,El Gran Patron Night Club,3516064,,2638 Main St.,91911,32.5953999,-117.0768253,San Diego,US,Chula Vista
175,El Club Patron,1976619,,5850 W. University Blvd. Suite. 140,79760,31.85468,-102.446477,Lubbock,US,Odessa
176,El Rodeo Night Club,1753518,,24805 Alessandro Blvd #1,92553,33.9159208,-117.2298278,Los Angeles,US,Moreno Valley
180,El Roco Night Club,2012649,,1730 13th Avenue N # 2,58203,47.9323671,-97.0511934,Fargo,US,Grand Forks
181,Club El Bajio,3491324,,1600 S. College Ave,77801,30.654507,-96.370727,Austin,US,Bryan
182,El Dorado Night Club,3813834,,218 S 4th Ave.,99301,46.2288582,-119.0918874,Spokane,US,Pasco
183,El Papio Night Club,3162879,,2275 Ellsworth Rd,48197,42.2305477,-83.6454407,Detroit,US,Ypsilanti
184,El Corona Nite Club,3629904,,7503 W US Highway 90,78227,29.4009721,-98.6385355,San Antonio,US,San Antonio
186,El Patron Night Club,2524594,,1465 Jerome ave,10452,40.841435,-73.917212,New York,US,Bronx
187,El Diamante Club,3730199,,3181 W. Alameda Ave.,80219,39.711423,-105.028442,Denver,US,Denver
188,El Niguel Country Club,3315819,,23700 Club House Dr,,33.5115923,-117.7160175,Orange County,US,Laguna Niguel
190,el toro night club,2798398,,2470 san bruno ave.,94134-1526,37.7306713,-122.4052746,SF Bay Area,US,San Francisco
191,El Palacio Night Club,2948783,,224 w. Main st.,95340,37.2997556,-120.4795421,Modesto,US,Merced
197,Club El Dorado,2638128,,525 Sable Blvd.,80011,39.7255755,-104.8175574,Denver,US,Aurora
198,El Palenque Night Club,2802888,,1115 NW 22nd Ave.,33125,25.7837681,-80.2312337,Miami,US,Miami
199,El sol club,2551604,,500 valley ave.,35209,33.473747,-86.8192,Birmingham,US,Birmingham
200,El Centenario Night Club,3275744,,3220 Dixie Highway,45014,39.3630434,-84.5426167,Cincinnati,US,Fairfield
201,El Patio Night Club,965151,,1750 W. La Palma,92801,33.846553,-117.943506,Los Angeles,US,Anaheim
202,El Nuevo Terre Night Club,3724254,,44950 Valley Central Wy,93536,34.6985461,-118.1708555,Los Angeles,US,Lancaster
204,El Bravo Night Club,2561369,,723 N. RIDGEWOOD DR,33870,27.502772,-81.4388502,Sebring,US,Sebring
205,El Capri Night Club,3808659,,2135 E Van Buren St,85006,33.4510458,-112.0358669,Phoenix,US,Phoenix
206,El Rodeo Night Club,3810064,,990 N Pacific Hwy,97071,45.1436232,-122.8374348,Salem,US,Woodburn
207,El Terre Night Club,2588608,,44950 VALLEY CENTRAL WAY SUITE 104,93536,34.6981605,-118.1731524,Los Angeles,US,Lancaster
208,Club el Palenque,3719054,,1880 Carter Ave.,10457,40.8475157,-73.9014852,New York,US,Bronx
209,El Charro Night Club,1587023,,221 South 9th Street,68508,40.811974,-96.708947,Lincoln,US,Lincoln
210,El Volcan Night Club,4034679,,4920 Northup Ave.,62201,38.61896,-90.26718,St Louis,US,St Louis
212,El Dorado Night Club,4118734,,1023 N 1st St.,98901,46.61598,-120.51146,Tacoma,US,Yakima
213,El Club Patio,3946964,,4114  W Vernor Hwy,48209,42.3214,-83.09366,Detroit,US,Detroit
216,Dick's Sporting Goods Park,15961,,6000 Victory Way,80022,39.801481,-104.891968,Denver,US,Commerce City
217,"The Fields, Dick's Sporting Goods Park",539621,,,,,,Denver,US,Denver
218,War Memorial Field,1882278,,,83864,48.27658,-116.55347,Sandpoint,US,Sandpoint
219,War Memorial Field,2773813,,287 Nepperhan ave.,10701,40.937391,-73.890981,Yonkers,US,Yonkers
220,"Jonah Field, War Memorial Stadium, University of Wyoming",2752713,,2111 Grand Avenue,82070,41.3098191,-105.5670568,Cheyenne,US,Laramie
221,Michigan Theater,2103,1700.0,603 East Liberty Street,48104,42.2793857,-83.7418993,Detroit,US,Ann Arbor
222,Michigan Theater,649401,,,,,,Escanaba,US,Escanaba
223,The Michigan Palace,43008,4000.0,238 Bagley Street,48226,42.334458,-83.053122,Detroit,US,Detroit
224,The Pearl Theater,1228321,,,,,,Michigan City,US,Michigan City
225,"Rudy Hart Theater, Marquette Catholic High School",3500364,,306 W 10th St,46360,41.71086,-86.9026,Michigan City,US,Michigan City
226,Michigan Theater...notre Dame,3366789,,,,41.7001908,-86.2379328,Notre Dame,US,Notre Dame
227,Murry's,7702,,3107 Green Meadows Way,65201,38.91654,-92.33703,St Louis,US,Columbia
228,Maryland Hall for the Creative Arts,37208,,801 Chase St.,21401,38.97381,-76.50568,Baltimore,US,Annapolis
229,Lubbock Civic Center,36969,,1501 Mac Davis Lane,79401,33.5889,-101.85063,Lubbock,US,Lubbock
230,Civic Center Auditorium,305216,,,,,,Lubbock,US,Lubbock
231,Reeves County Civic Center,3964279,,1520 S Cedar St,79772,31.4122261,-103.4872629,Lubbock,US,Pecos
232,Lubbock Civic Center Theatre,2847318,,,79401,33.58465,-101.85211,Lubbock,US,Lubbock
233,Abilene Civic Center,36970,,1100 North 6th St.,79601,32.45477,-99.73377,Dallas - Fort Worth,US,Abilene
234,Abilene Civic Center - Exhibit Hall,3109734,,,79601,32.4487364,-99.7331439,Dallas - Fort Worth,US,Abilene
235,The Grand Theater,4339342,,,,,,Madison,US,Wausau
236,Green Bay Distillery,1617263,,835 Mike McCarthy Way,54304,44.49611,-88.05758,Ashwaubenon,US,Ashwaubenon
237,The State Theatre of Ithaca,4390,1611.0,107 W. State St.,14850,42.43953,-76.49936,Rochester,US,Ithaca
238,State Theatre of Ithaca - (gmt-05:00) Eastern Time (us & Canada),4343069,,107 West State St.,14850,42.43926,-76.49959,Rochester,US,Ithaca
239,State Theatre Marquee,2356404,,107 W. State St.,14850,42.4395124,-76.4993622,Rochester,US,Ithaca
240,Hard Rock Live - Orlando,38516,,6050 Universal Blvd.,32819,28.4737,-81.46734,Orlando,US,Orlando
241,"Jarson Kaplan Theater, Aronoff Center",527736,,650 Walnut St.,45202,39.1035457,-84.5117207,Cincinnati,US,Cincinnati
242,Aronoff Center-jarson Kaplan Theater,4162744,,,45202,39.1032,-84.50649,Cincinnati,US,Cincinnati
243,Intersection,32963,,133 Grandville Sw,49503,42.960082,-85.674089,Grand Rapids,US,Grand Rapids
244,Intersection,63215,,,,,,SF Bay Area,US,San Francisco
245,The Stache at the Intersection,2194624,,133 Grandville Ave. SW,49503,42.96008,-85.67409,Grand Rapids,US,Grand Rapids
246,Elevation @ the Intersection,3985879,,,49503,42.96167,-85.6589,Grand Rapids,US,Grand Rapids
247,"The Intersection, Front Lounge",706496,,"133 Grandville Ave., S.W",49503,42.960082,-85.674089,Grand Rapids,US,Grand Rapids
248,Intersection for the Arts,1497338,,925 Mission Street @ Fifth Street,94114,37.7790595,-122.4018195,SF Bay Area,US,San Francisco
249,Intersection - the Mint,3978779,,,49503,42.96167,-85.6589,Grand Rapids,US,Grand Rapids
250,Intersection,95668,,,,,,Nashville,US,Nashville
251,Intersection,97482,,,,,,Spring Lake,US,Spring Lake
252,Art Intersection,3405074,,"207 North Gilbert Road, Suite 201",85234,33.35384,-111.78934,Mesa,US,Gilbert
253,The Intersection,1954154,,Strauss Park - 3534 Washington Ave.,63103,38.638602,-90.230997,St Louis,US,St Louis
255,The Intersection,3228954,,905 North McDonald Road,99216,47.6672203,-117.2289502,Spokane,US,Spokane
256,Warehouse District Parking Lot (intersection at W.6th & St. Clair),3345129,,1371 West 6th Street,44113,41.49932,-81.697846,Cleveland,US,Cleveland
257,Intersection of Kellogg & Robert,2997263,,,,44.9537029,-93.0899578,Twin Cities,US,St. Paul
258,Intersection of Harrison & Church Street,1454833,,Intersection of Harrison & Church Street,46001,40.2635789,-85.6744452,Alexandria,US,Alexandria
259,"Intersection BBQ, Bar & Grill",2700213,,206 Virginia Street,83654,44.8941724,-116.0928011,Mccall,US,Mccall
260,"intersection, 3rd & Bridger",4237049,,S 3rd St & E Bridger Ave,89101,36.16789,-115.14446,Las Vegas,US,Las Vegas
262,The Intersection,3752204,,,,35.9606384,-83.9207392,Knoxville,US,Knoxville
263,The Intersection Of,3002699,,,92103,32.749789,-117.1676501,San Diego,US,San Diego
264,Elevations at The Intersection,3825474,,,,,,Grand Rapids,US,Grand Rapids
266,"The Music Box, Borgata Hotel & Casino",28810,,1 Borgata Way,08401,39.3770706,-74.4345188,Philadelphia,US,Atlantic City
270,The Music Box,2431729,,907 S Madison Street,79101,35.204858,-101.844937,Amarillo,US,Amarillo
271,The Music Box,3632004,,147 Creek Rd,05826,44.6287754,-72.2146963,Montpelier,US,Greensboro
274,The Music Box,1666353,,4701 Troost,64110,39.0415035,-94.572841,Kansas City,US,Kansas City
275,"The Music Box (Craftsbury, VT)",3966834,,,,,,Barre,US,St. Johnsbury
277,Fonda Theatre,187523,1300.0,6126 Hollywood Blvd.,90028,34.1012695,-118.3232478,Los Angeles,US,Hollywood
278,The Music Box Theater,2962198,,2623 Colquitt,77098,29.7346159,-95.4192637,Houston,US,Houston
280,Nectar Lounge,11589,450.0,412 N. 36th St.,98103,47.6521845,-122.3538836,Seattle,US,Seattle
281,"Nectar Lounge, Seminole Casino Coconut Creek",766521,,5550 NW 40th St.,33073,26.2783398,-80.1996556,Fort Lauderdale,US,Coconut Creek
282,Minnesota State Fair,3086064,,1372 Cosgrove Street,,44.98218,-93.16794,Twin Cities,US,Falcon Heights
283,"Dino's Gyros Stage, Minnesota State Fair",1989699,,,,,,Twin Cities,US,Minneapolis
284,Saint Rocke,31270,280,142 Pacific Coast Hwy.,90254,33.8561736,-118.3904234,Los Angeles,US,Hermosa Beach
285,Shubert Theatre,2198104,,247 College Street,06510,41.30649,-72.92896,Bridgeport,US,New Haven
286,"Shubert Theatre, Boch Center",239453,,265 Tremont Street,02116,42.3504,-71.0654,Boston / Cambridge,US,Boston
287,Little Shubert Theatre,182838,,,,,,New York,US,New York
288,Shubert Theatre,49230,,,,,,Philadelphia,US,Philadelphia
289,Shubert Theatre-ma,4013389,,,02116,42.35307,-71.07652,Boston / Cambridge,US,Boston
290,Shubert Theatre,634086,,,,,,Chicago,US,Chicago
291,"Winspear Opera House, AT&T Performing Arts Center",800466,,2403 Flora St.,75206,32.791313,-96.7986094,Dallas - Fort Worth,US,Dallas
292,Margot and Bill Winspear Opera House,4040269,,,75201,32.78633,-96.79625,Dallas - Fort Worth,US,Dallas
293,Scranton Cultural Center,4788,,420 North Washington Avenue,18503,41.41065,-75.66066,Newark,US,Scranton
294,Harry and Jeanette Weinberg Theatre at the Scranton Cultural Center - Masonic Temple,2875268,,,18503,41.4108493,-75.6659016,Newark,US,Scranton
295,Junior Ballroom at Scranton Cultural Center - Masonic Temple,4017204,,420 N Washington Ave,18503,41.41079,-75.65999,Newark,US,Scranton
296,Grand Ballroom at the Scranton Cultural Center - Masonic Temple,3153644,,,18503,41.4108493,-75.6659016,Newark,US,Scranton
297,Cultural Arts Center,202753,,,,,,Newark,US,Scranton
298,Mass MoCA,4366,,87 Marshall St.,01247,42.7018108,-73.1146681,Springfield,US,North Adams
299,"Hunter Center, Mass MoCA",1102896,,1040 MASS MoCA Way,01247,42.70191,-73.11402,Springfield,US,North Adams
300,"The Chalet, Mass MoCA",3653234,,1040 Mass MoCA Way,,42.7022586,-73.1162555,Springfield,US,North Adams
301,"Courtyard Cafe, Mass MoCA",176003,,,,,,Springfield,US,North Adams
302,RICHMOND Co.,69036,,,,,,Augusta,US,Augusta
303,I/o,650686,,,,,,Miami,US,Miami
305,Genesee Theatre,564,,203 North Genesee Street,60085,42.3623834,-87.831289,Chicago,US,Waukegan
306,Grand Theater at Foxwoods,16384,,39 Norwich Westerly Road,06339,41.47836,-71.96309,Mashantucket,US,Mashantucket
307,"Jabbawockeez Theater, MGM Grand Hotel & Casino",3100139,,3799 Las Vegas Blvd South,89109,36.10292,-115.16976,Las Vegas,US,Las Vegas
308,The Grand Stafford Theater,1624428,450.0,106 S Main St,77803,30.673365,-96.373783,Austin,US,Bryan
309,Choctaw Grand Theater,2996913,,4418 S Hwy 69/75,74701,34.03524,-96.36891,Durant,US,Durant
311,Gray Area / Grand Theater,594401,800.0,2665 Mission St,94110,37.75439,-122.4185,SF Bay Area,US,San Francisco
312,Medical Center of Lewisville Grand Theater,1359671,,100 N. Charles St.,75057,33.04682,-96.99737,Dallas - Fort Worth,US,Lewisville
313,Grand Theater,125416,,,,,,Philadelphia,US,Atlantic City
315,Wheaton Grand Theater,91897,,,,,,Aurora,US,Wheaton
318,Grand Theater,1682973,,26 N. 6th Street,52632,40.39726,-91.383467,Keokuk,US,Keokuk
319,"David Copperfield Theater, MGM Grand Hotel and Casino",2982413,,3799 Las Vegas Blvd South,89109,36.102875,-115.169561,Las Vegas,US,Las Vegas
320,Mesa Theater & Club,13541,,538 Main Street,81501,39.0675168,-108.5635473,Denver,US,Grand Junction
321,Mcl Grand Theater of Lewisville,3986964,,100 North Charles Street,75057,33.04682,-96.99737,Dallas - Fort Worth,US,Lewisville
324,Grand Lake Theater,63807,,,,,,SF Bay Area,US,Oakland
327,Grand Theater,127879,,,,,,Springfield,US,Branson
331,Grand Victoria Theater Elgin,2739818,,250 South Grove Avenue,60120,42.031196,-88.279213,Aurora,US,Elgin
332,Uptown Theater,809476,,120 Main St,75053,32.74569,-97.00249,Dallas - Fort Worth,US,Grand Prairie
333,The Globe Theater,971566,,241 E. Kalamazoo Ave,49007,42.294686,-85.5806527,Grand Rapids,US,Kalamazoo
337,The Grand Theater,3400504,,,,33.7489954,-84.3879824,Atlanta,US,Atlanta
338,The Grand Theater,4339342,,,,,,Madison,US,Wausau
339,Grand Palace Theater,334976,,,,,,Los Angeles,US,Valencia
340,Grand Ole Gospel Theater,840766,,,,,,Chocowinity,US,Chocowinity
341,Mesa Theater Lounge,1972684,,538 Main St.,81526,39.1077219,-108.3509714,Denver,US,Grand Junction
342,Grand County High School Theater,1548253,,,,,,Moab,US,Moab
343,Ionia Theater,315206,,203 W Main St,48846,42.9826467,-85.0642473,Grand Rapids,US,Ionia
344,Dog Story Theater,2573174,,7 Jefferson Ave SE,49503,42.9628721,-85.664318,Grand Rapids,US,Grand Rapids
345,Muiderman Theater,1955979,,1410 Elm Coulee Dr NE,58278,47.763319,-97.137808,Fargo,US,Grand Forks
346,The Epic Theater,4108299,,2960 Epic Place,75052,32.70299,-97.03024,Dallas - Fort Worth,US,Grand Prairie
347,"Wellspring Theater, Epic Center",1752968,,"359 S. Kalamazoo Mall, Suite 204",49007,42.2891992,-85.583116,Grand Rapids,US,Kalamazoo
348,Wealthy Theater Annex,2073779,,1110 Wealthy Street,49506-15,42.955368,-85.641402,Grand Rapids,US,Grand Rapids
349,"Dalton Theater, Kalamazoo College",311391,,"Light Fine Arts Blgd., 1200 Academy St.",49007,42.2913983,-85.6009984,Grand Rapids,US,Kalamazoo
350,"Mary Jane Stryker Theater, Kalamazoo Valley Museum",801696,,,,,,Grand Rapids,US,Kalamazoo
351,Detroit Opera House,2673,2700.0,1526 Broadway Street,48226,42.33601,-83.04871,Detroit,US,Detroit
352,Kalamazoo Theater,115781,,,,,,Grand Rapids,US,Kalamazoo
353,Dewitt Theater,1602143,,141 East 12th Street,49423,42.7867267,-86.1006903,Grand Rapids,US,Holland
354,Broadway Theater,297846,319.0,216 East Broadway Street,48858,43.6044401,-84.7747795,Grand Rapids,US,Mount Pleasant
355,"Rcah Theater, MSU",1617843,,C20 Snyder-Phillips Hall,48824,42.729939,-84.473062,Grand Rapids,US,East Lansing
359,Clutch Cargo's,9790,1500.0,65 East Huron Street,48342,42.6394476,-83.2903125,Detroit,US,Pontiac
360,"Cargo Concert Hall, Whitney Peak Hotel",2634548,,255 N Virginia St.,89501,39.52786,-119.81384,Reno,US,Reno
361,Clutch Cargo's,1095701,,64 West Elizabeth Street,48226,42.3380304,-83.0504877,Detroit,US,Detroit
363,iLounge @ Clutch Cargo's,857831,450.0,65 East Huron Street,48342,42.6394476,-83.2903125,Detroit,US,Pontiac
367,Cargo Cafe,867316,,120 Bay St.,10301,40.6396177,-74.0756016,New York,US,Staten Island
378,Global Coffee & Cargo,880201,,2915 W. Armitage,60647,41.917245,-87.6999699,Chicago,US,Chicago
389,Craft & Cargo,3983224,,,,,,Dallas - Fort Worth,US,Dallas
400,Rockit Cargo,66781,,,,,,Los Angeles,US,Los Angeles
406,The Complex (Formerly Regency Live),3787179,,307 Park Central East,65806,37.20921,-93.29102,Springfield,US,Springfield
407,The Complex,957351,,,63103,38.629185,-90.2174318,St Louis,US,St Louis
408,The Roaring Twenties Complex,3452804,500.0,807 North 2nd St.,63102,38.6311359,-90.1843867,St Louis,US,St Louis
409,The Lot at the Complex,4261969,,307 Park Central East,65806,37.20908,-93.291,Springfield,US,Springfield
410,Hard Rock Live - Orlando,38516,,6050 Universal Blvd.,32819,28.4737,-81.46734,Orlando,US,Orlando
411,Paramount Theatre,33724,,713 Congress Ave.,78701,30.26945,-97.7421,Austin,US,Austin
412,Stateside at the Paramount Theatre,1606909,,713 Congress Avenue,78701,30.26945,-97.7421,Austin,US,Austin
413,Paramount Theatre,678181,,125 4th Avenue Northeast,55912,43.6699364,-92.9744406,Twin Cities,US,Austin
414,Foxtail,3891124,,1601 East Carson Street,15203,40.429,-79.98253,Pittsburgh,US,Pittsburgh
415,"Foxtail, SLS Las Vegas",2935498,,2535 Las Vegas Blvd S,89109,36.1423378,-115.1563054,Las Vegas,US,Las Vegas
416,Foxtail Pool Club Bachelorette,2749373,,,,36.1699412,-115.1398296,Las Vegas,US,Las Vegas
417,Foxtail,3357024,,2535 S. Las Vegas Blvd,89109,36.1422754,-115.1562447,Las Vegas,US,Las Vegas
418,The Citadel,4157244,,6447 W Washington St,46241,39.74377,-86.27347,Indianapolis,US,Indianapolis
420,The Citadel Music Hall,4242094,1800.0,6447 W Washington St,46241,39.74383,-86.27346,Indianapolis,US,Indianapolis
421,The Citadel,4158404,,8300 Northeast 2nd Avenue,33138,25.85195,-80.19344,Miami,US,Miami
424,The Citadel,49212,,4200 S Othello St,98118,47.53758,-122.280108,Seattle,US,Seattle
427,The Citadel,313051,,,,,,Columbia,US,Charleston
428,The Citadel Auditorium,66681,,,,,,Columbia,US,Charleston
430,"Summerall Chapel, The Citadel",10526,,,,,,Columbia,US,Charleston
435,The Salvation Army Long Beach Citadel,3638914,,3000 Long Beach Blvd,CA 90807,33.8115728,-118.1893498,Los Angeles,US,Long Beach
436,"Johnson Hagood Football Stadium, The Citadel",2969063,,68 Hagood Ave,29403,32.7940715,-79.957331,Columbia,US,Charleston
437,The Oak Room at the Citadel,3823644,,91 Hinkley St,49022,42.1173233,-86.4558503,Chicago,US,Benton Harbor
438,Winston-Salem Fairgrounds,2514269,,300 Deacon Blvd.,27105,36.12857,-80.25093,Winston-Salem,US,Winston-Salem
439,Winston Salem Fairgrounds,3820999,,421 27th St NW,27105,36.1279412,-80.2538132,Winston-Salem,US,Winston-Salem
440,High Country Fairgrounds,360241,,748 Roby Greene Rd,28607,36.2592085,-81.617606,Winston-Salem,US,Boone
441,Dixie Classic Fairgrounds,360081,,27th Street,27105,36.1237816,-80.2521541,Winston-Salem,US,Winston-Salem
442,Winston Salem Fairgrounds Annex,3956964,,414 Deacon Blvd.,,36.1279862,-80.2537906,Winston-Salem,US,Winston-Salem
443,Davidson County Fairgrounds,2213014,,400 Greensboro Street Extension,27292,35.836752,-80.2367527,Winston-Salem,US,Lexington
444,The Bartlett,2385614,200,228 W Sprague Ave,99201,47.657584,-117.414573,Spokane,US,Spokane
445,Symphony Hall,14276,,75 N. Second St.,85004,33.4492,-112.0708,Phoenix,US,Phoenix
446,The Complex,997441,,100 South 536 West,84101,40.76772,-111.90691,Salt Lake City,US,Salt Lake City
447,The Grand @ the Complex,1459948,,536 W 100 S,84101,40.76774,-111.90677,Salt Lake City,US,Salt Lake City
448,The Lot @ the Complex,3622689,,536 W 100 S,84101,40.76771,-111.90662,Salt Lake City,US,Salt Lake City
449,Paramount Theatre,529,2807.0,901 Pine Street,98101,47.6133,-122.33139,Seattle,US,Seattle
450,Paramount Theatre,1461018,1500.0,370 New York Ave.,11743,40.86974,-73.4258,New York,US,Huntington
451,Paramount Theatre,1171,,1621 Glenarm Place,80202,39.74436,-104.99027,Denver,US,Denver
452,Paramount Theatre,33724,,713 Congress Ave.,78701,30.26945,-97.7421,Austin,US,Austin
453,Paramount Theatre,33014,,2025 Broadway,94612,37.80971,-122.26822,SF Bay Area,US,Oakland
454,Paramount Theatre,13334,,1200 Ocean Ave,07712,40.22262,-73.99918,New York,US,Asbury Park
455,Paramount Theatre,30167,,23 E Galena Blvd,60506,41.7580719,-88.3148172,Aurora,US,Aurora
456,Paramount Theatre,994,,215 East Main Street,22902,38.03083,-78.48003,Richmond,US,Charlottesville
457,Paramount Theatre,65646,,30 Center St,05701,43.60641,-72.97879,Rutland,US,Rutland
458,Paramount Theatre,1388,,370 First Street Ne,52401,41.97926,-91.67116,Des Moines,US,Cedar Rapids
459,Paramount Theatre,116989,,913 West St Germain Street,56301,45.5589227,-94.1634037,Twin Cities,US,Saint Cloud
460,Paramount Theatre,678181,,125 4th Avenue Northeast,55912,43.6699364,-92.9744406,Twin Cities,US,Austin
461,Paramount Theatre,65526,1500.0,17 South St.,10940,41.4442437,-74.4205947,Middletown,US,Middletown
462,Stateside at the Paramount Theatre,1606909,,713 Congress Avenue,78701,30.26945,-97.7421,Austin,US,Austin
464,Paramount Theatre,496956,,352 Cypress St.,79601,32.45205,-99.7344,Dallas - Fort Worth,US,Abilene
465,Paramount Theatre,1209356,,420 North Florence Street,85122,32.87824,-111.75249,Chandler,US,Casa Grande
466,Paramount Theatre,15800,,139 S. Center St,27530,35.3822267,-77.9977288,Raleigh,US,Goldsboro
467,Paramount Theatre,3458304,,11 N. Lee Ave.,73102,35.4670122,-97.5244386,Oklahoma City,US,Oklahoma City
468,Paramount Northwest Theatre,60073,,,,45.5230622,-122.6764816,Portland,US,Portland
469,RKO Paramount Theatre,128266,,,,,,New York,US,New York
470,The Paramount Theatre Centre & Ballroom,216003,,1124 Meridian St.,46016,40.10446,-85.67879,Indianapolis,US,Anderson
471,Paramount Theatre,332906,,,,,,Fort Lauderdale,US,Palm Beach
474,Paramount Theatre on the Lot at Paramount Studios,1001081,,5555 Melrose Ave,90038,34.0834714,-118.3217472,Los Angeles,US,Hollywood
475,Paramount Theatre,112663,,,,,,Doswell,US,Doswell
477,The Paramount Theatre,448026,,,,,,Charlotte,US,Charlotte
478,Paramount Theatre Mezzanine,3414084,,1300 Ocean Avenue,07712,40.2237962,-73.9985849,New York,US,Asbury Park
480,Opus Concert Cafe at the Paramount Theatre,4103294,150.0,119 Third Avenue SE,52401,41.97656,-91.66705,Des Moines,US,Cedar Rapids
481,Paramount Center,822296,,559 Washington Street,02111,42.3536047,-71.0623759,Boston / Cambridge,US,Boston
482,Garfield Theatre,121782,,,,,,Los Angeles,US,Paramount
483,Backstage Asbury at the Paramount Theatre,3290564,,1300 Ocean Ave,07712,40.2237962,-73.9985849,New York,US,Asbury Park
484,Petco Park,15325,,100 Park Blvd,92111,32.70566,-117.15562,San Diego,US,San Diego
485,Whisky A Go Go,16270,500.0,8901 W Sunset Blvd,90069,34.0908029,-118.3857196,Los Angeles,US,West Hollywood
486,The Whisky A-Go-Go,92274,,,,,,SF Bay Area,US,San Francisco
490,The Marquis Theater,224,157.0,2009 Larimer Street,80202,39.75321,-104.99249,Denver,US,Denver
491,Summit Music Hall & Marquis Theater,3544534,,1902 Blake St,80202,39.753338,-104.995071,Denver,US,Denver
492,Surfer the Bar,3566169,,200 1st Street North,32250,30.29055,-81.39007,Jacksonville,US,Jacksonville Beach
493,"Surfer, the Bar, at Turtle Bay Resort",1636278,,57-091 Kamehameha Hwy.,96731,21.70483,-157.99844,Honolulu,US,Kahuku
495,Lucy's Retired Surfer Bar,3266429,,151 3rd Street,70801,30.4478713,-91.1884498,Baton Rouge,US,Baton Rouge
496,Lucy's Retired Surfer's Bar & Restaurant,129035,,,,,,New Orleans,US,New Orleans
497,The Chicken Box,365526,,14 Dave St,02554,41.2727979,-70.0920096,Nantucket,US,Nantucket
498,Sound Waves at Hard Rock Hotel & Casino Atlantic City,3954879,,1000 Boardwalk,08401,39.35999,-74.42124,Philadelphia,US,Atlantic City
499,Grizzly Rose,1151,,5450 North Valley Highway,80216,39.7953,-104.986759,Denver,US,Denver
500,The Grizzly Rose,158453,,,,,,Boise,US,Boise
501,Grizzly Rose,175403,,,,,,Portland,US,Portland
502,Fiddler's Green Amphitheatre,100462,18000,6350 Greenwood Plaza Blvd.,80111,39.60081,-104.89442,Denver,US,Greenwood Village
503,Sweetland Amphitheatre at Boyd Park,3258529,,110 Smith Street,30240,33.04395,-85.03194,LaGrange,US,LaGrange
504,The District,2439334,,4521 W. Empire Place,57107,43.5089843,-96.7789028,Sioux Falls,US,Sioux Falls
505,The District,2321349,,4607 Johnston St.,70503,30.18649,-92.06338,Baton Rouge,US,Lafayette
506,The District Stage At Tempe Marketplace,9518,,The District Stage At,85281,33.4366655,-111.9403254,Phoenix,US,Tempe
509,The District Tavern,938786,,260 E. Congress St.,85701,32.2220734,-110.9677263,Tucson,US,Tucson
510,The District at Tustin Legacy,38749,,2437 Park Ave.,92782,33.6980903,-117.8250866,Los Angeles,US,Tustin
511,The District Theater,2957388,,7430 Monterey Street,95020,37.0073859,-121.568445,Gilroy,US,Gilroy
512,The District,787736,,1290 Oak Street,97401,44.0455569,-123.0913671,Salem,US,Eugene
513,Dancin' In The District,62959,,,,,,Nashville,US,Nashville
514,Rock The District,491861,,1809 2nd Ave,61201,41.5110384,-90.5745525,Rock Island,US,Rock Island
516,The District Nightclub,3180874,,,96814,21.2966976,-157.8480364,Honolulu,US,Honolulu
517,The District Bar,2299479,,916 W. 1st Avenue,99201,47.65662,-117.42605,Spokane,US,Spokane
518,The Music District,3530259,,639 South College Avenue,80524,40.5787249,-105.0775443,Cheyenne,US,Fort Collins
519,The District House,2524314,,755 NW 16th Street,73106,35.4860062,-97.5253566,Oklahoma City,US,Oklahoma City
522,The District,961381,,120 16 1/2 St.,61201,41.512032,-90.5768144,Rock Island,US,Rock Island
523,The Sunshine District,2299354,100.0,2010 N 9th St NW,20001,38.917386,-77.024281,Washington,US,Washington
524,The District Vapor Lounge,2866783,,19 East Citrus Avenue #101,92373,34.0557514,-117.1819882,Los Angeles,US,Redlands
525,The District Event Center,4087389,,4607 Johnston Street,70503,30.18649,-92.06338,Baton Rouge,US,Lafayette
526,The Milk District (sandwich Bar Spacebar),1755088,,,32803,28.5542151,-81.3454417,Orlando,US,Orlando
527,The Warehouse District,3645904,,1212 W 6th Street,44113,41.5009284,-81.7002298,Cleveland,US,Cleveland
528,The District,1825373,,700 West 31st St,,41.8382999,-87.644022,Chicago,US,Chicago
529,The District,1432393,,"500 Riverwalk Terrace, Ste 175",74037,36.0255678,-95.9588652,Tulsa,US,Jenks
531,"The District, Green Valley Ranch",1441623,,2240 Village Walk Dr.,89052,36.021662,-115.086782,Henderson,US,Henderson
532,The District By Hannah An,3200418,,8722 West 3rd Street,90048,34.0734207,-118.3824994,Los Angeles,US,Los Angeles
534,The District Bar,219518,,115 Fourth St. NW,,35.085303,-106.651687,Albuquerque,US,Albuquerque
535,The District Coffeehouse,4058154,,219 N. 10th St.,83702,43.61829,-116.20465,Boise,US,Boise
536,The Oregon District,706771,,5th Street,45414,39.759662,-84.168306,Dayton,US,Dayton
537,The District Skatepark,1660133,,,,,,Louisville,US,Evansville
538,The Red Light District,1207371,,,,,,New York,US,New York
541,The Pear District,679566,,,,,,Portland,US,Portland
542,The District Lounge,1158221,,,,,,Seattle,US,Seattle
543,The Music District,3403404,,,,39.7392358,-104.990251,Denver,US,Denver
544,The District @ Gvr,1026741,,2240 Village Walk Drive,89052,36.021662,-115.086782,Henderson,US,Henderson
545,The Garment District,1068366,,200 Broadway,02139,42.3659575,-71.092756,Boston / Cambridge,US,Cambridge
546,The Granary District,3662224,,755 NE Alpine Avenue,,45.2127231,-123.1894681,McMinnville,US,McMinnville
547,The District Room,3249604,,,,33.2098407,-87.5691735,Birmingham,US,Tuscaloosa
548,The Bridge District,3004744,,Riverfront St.,95691,38.5759428,-121.5142167,Sacramento,US,West Sacramento
549,The Space at District,4233809,,106 SE A Street #2,72712,36.37191,-94.20823,Rogers,US,Bentonville
550,The Foundry District,3647124,,2624 Weisenberger St,76107,32.75741,-97.35395,Dallas - Fort Worth,US,Fort Worth
551,The District Company,2437964,,224 N. Dewey St.,,44.8154642,-91.4991518,Twin Cities,US,Eau Claire
552,The District At Eastover,4072824,,,,,,Jackson,US,Jackson
553,The District Bar & Grill,300666,,,,,,Austin,US,Austin
554,Summit,2476134,,120 W 5th St,78701,30.26758,-97.74387,Austin,US,Austin
555,Summit Music Hall,836146,,1902 Blake St.,80202,39.75351,-104.99532,Denver,US,Denver
556,The Summit,36816,,2210 Summit Street,43201,40.00854,-83.00057,Columbus,US,Columbus
557,The Summit,43010,,3536 Navigation Blvd,77003,29.7544496,-95.3343214,Houston,US,Houston
558,The Moon Room @ Summit Music Hall,2102249,,1902 Blake St,80202,39.7535064,-104.9953172,Denver,US,Denver
559,The Summit,120963,,600 Main,81301,37.2702393,-107.8816233,Durango,US,Durango
560,Summit City Lounge,394516,120.0,214 Main Street,41858,37.1186136,-82.8270006,Whitesburg,US,Whitesburg
561,Summit Coffee,598851,,128 S Main St,28036,35.498389,-80.84911,Charlotte,US,Davidson
563,Cafe Bourbon St. / The Summit,2361774,,2210 / 2216 Summit St,43201,40.00868,-83.00052,Columbus,US,Columbus
564,Summit Shack,3653214,,217 East Evers,43402,41.3799862,-83.6476831,Toledo,US,Bowling Green
565,The Summit,1445053,,10 S Clinton St.,52240,41.6608607,-91.5342869,Des Moines,US,Iowa City
567,1st Summit Arena at Cambria County War Memorial,74110,,326 Napoleon Street,15901,40.32303,-78.92272,Johnstown,US,Johnstown
568,Summit Brewing Company,1450718,,910 Montreal Circle,55102,44.9143417,-93.1403552,Twin Cities,US,St. Paul
569,Summit Rooftop Lounge,3034509,,120 West 5th St,77071,30.26755,-97.74394,Austin,US,Austin
570,Summit Park,3238724,,4335 Glendale-Milford Rd,45242,39.2522586,-84.3899129,Cincinnati,US,Blue Ash
571,Base Camp at Summit Music Hall,990436,,1902 Blake Street,80202,39.7535064,-104.9953172,Denver,US,Denver
572,The Summit Church,1488443,,2335 Presidential Drive,27703,35.926734,-78.8415076,Durham,US,Durham
573,Summit Stage and Saloon,705391,,125 Nw Oregon Ave,97701,44.0591979,-121.3125763,Salem,US,Bend
574,Summit City Brewerks,3007324,,1501 E Berry St #106,46803,41.081362,-85.1177955,Fort Wayne,US,Fort Wayne
576,Celebrity Summit,3284839,,Port Everglades,,26.0937112,-80.1246643,Fort Lauderdale,US,Fort Lauderdale
577,Summit Community Center,3146039,,,97326,44.6754577,-123.5583084,Salem,US,Philomath
578,Aqua Sol Restaurant at the Summit North Marina,1382621,,3006 Summit Harbour Place,19701,39.5486435,-75.7045912,Wilmington,US,Bear
579,Summit Fair Shopping Center,1042436,,,,,,Kansas City,US,Kansas City
580,"Summit West, the Summit at Snoqualmie",2878333,,1001 State Route 906,,47.4233424,-121.4136102,Snoqualmie,US,Snoqualmie
581,Big Summit Prairie,3490529,,Ohocco National Forest,,44.3762482,-120.1177754,Portland,US,Portland
582,Midwest Music Summit,100653,,,,,,Indianapolis,US,Indianapolis
583,Summit Estates,3456304,500.0,222 East Patriot Boulevard,89511,39.452313,-119.777563,Reno,US,Reno
584,The Summit,64690,,,,,,New Milford,US,New Milford
585,"Summit Pavilion, Grand Sierra Resort & Casino",176348,,,89595,39.5296329,-119.8138027,Reno,US,Reno
586,Strathmore Uke & Guitar Summit,2911383,,North Bethesda,,39.0045875,-77.101208,Washington,US,North Bethesda
587,Summit Opera House,2840523,,2 Kent Pl Blvd,07901,40.717751,-74.3617443,Summit,US,Summit
588,The Brewtop - Lee's Summit,1340611,,700 NE Woods Chapel Road,64064,38.983179,-94.361694,Kansas City,US,Lees Summit
589,Future of Music Summit,1991224,,Lohrfink Auditorium,20057,38.9076089,-77.0722585,Washington,US,Washington
590,Summit Jazz,341646,,,,,,Denver,US,Denver
591,Jerry's Bait Shop,102477,,302 Southwest Main Street,64063,38.911494,-94.3778899,Kansas City,US,Lees Summit
592,The Summit,443896,,,,,,Snoqualmie Pass,US,Snoqualmie Pass
593,Snow Summit,2193344,,880 Summit Blvd,92315,34.236588,-116.889735,Big Bear Lake,US,Big Bear Lake
594,The Summit Church - North Raleigh Campus,1143616,,5808 Departure Drive,27616,35.8625339,-78.590011,Raleigh,US,Raleigh
595,Summit,4238239,,3616 SW 119th St,73170,35.34769,-97.5821,Oklahoma City,US,Oklahoma City
596,The Summit Steakhouse,1538358,,,,,,Denver,US,Denver
597,The Summit at Northeast,1175846,,4400 Shore Acres Blvd.,33701,27.81275,-82.609793,St Petersburg,US,St Petersburg
599,Summit Christian Center,607776,,2575 Marshall Rd,78259,29.6610375,-98.4488525,San Antonio,US,San Antonio
600,"Main Branch, Akron-Summit County Public Library",1361316,,60 S. High Street,44326,41.083771,-81.516924,Akron,US,Akron
601,R&R Triple A Summit 2007,117860,,,,,,Denver,US,Boulder
602,Summit,139643,,,,,,Springfield,US,Hartford
604,Spirit of the Suwannee Music Park,188783,,3076 95th Dr.,32060,30.3948763,-82.9442352,Tallahassee,US,Live Oak
605,XL Center,519,,1 Civic Center Plaza,06103,41.7780919,-72.6802608,Springfield,US,Hartford
606,STAPLES Center,598,18118.0,1111 S. Figueroa,90017,34.04301,-118.26736,Los Angeles,US,Los Angeles
607,AT&T Center,671,,One AT&T Center,78219,29.42702,-98.43732,San Antonio,US,San Antonio
608,DCU Center,719,,50 Foster Street,01608,42.26605,-71.79857,Worcester,US,Worcester
609,SFJAZZ Center,2020904,,201 Franklin St.,94102,37.7761665,-122.4211855,SF Bay Area,US,San Francisco
610,BOK Center,11944,19100.0,200 South Denver,74103,36.152764,-95.996227,Tulsa,US,Tulsa
611,BB&T Center,2008454,20737.0,1 Panther Parkway,33323,26.155362,-80.33023,Fort Lauderdale,US,Sunrise
612,PPL Center,2584333,,701 Hamilton Street,18101,40.6027,-75.47273,Philadelphia,US,Allentown
613,UCCU Center,1268926,8500.0,800 West University Parkway,84058,40.27733,-111.71295,Salt Lake City,US,Orem
614,NRG Center,574041,,One NRG Park,77488,29.6850724,-95.4110895,Houston,US,Houston
616,TRAC Center,5380,,6600 Burden Blvd.,99301,46.26931,-119.1759,Spokane,US,Pasco
617,BCA Center,1261126,,135 Church St.,05401,44.476625,-73.212827,Burlington,US,Burlington
618,FOKL Center,2341884,,556 Central Ave,66101,39.1028284,-94.6245642,Kansas City,US,Kansas City
619,IX Center,119233,,One I-X Center Drive,44135,41.39936,-81.85317,Cleveland,US,Cleveland
620,E-Center,47487,,,,,,Philadelphia,US,Philadelphia
622,Atrium at the Xl Center,761996,,One Civic Center Plaza,06103,41.7780919,-72.6802608,Springfield,US,Hartford
623,COBO Center,816131,,1 Washington Avenue,48226,42.3267754,-83.0496523,Detroit,US,Detroit
624,Q Center,2100959,,4115 North Mississippi Avenue,97217,45.553594,-122.6758315,Portland,US,Portland
625,CAL Center,962181,,1100 S. Albert Ave.,53959,43.5214266,-90.0210202,Wisconsin Dells,US,Reedsburg
626,UTE Center,44112,,,,,,Salt Lake City,US,Salt Lake City
627,AA Center,148323,,,,,,Dallas - Fort Worth,US,Dallas
628,SOCO Center,3178454,,3303-3323 Hyland Ave,92626,33.6945847,-117.9253527,Los Angeles,US,Costa Mesa
629,I Center,145523,,,,,,Methuen,US,Salem
630,E Center,428926,,,,39.9259463,-75.1196199,Philadelphia,US,Camden
631,OH Center,106405,,,,,,Columbus,US,Columbus
633,MDA Center,2416594,,"1114 Shawan Road , MD",21030.,39.5033785,-76.6857719,Baltimore,US,Cockeysville
634,A.V. Center,73205,,,,,,Milwaukee,US,Oshkosh
635,MBSF Center,2481789,,346 University Drive,71656,33.5908246,-91.8077123,Little Rock,US,Monticello
636,HEB Center,4206619,,2100 Avenue of the Stars,78613,30.54129,-97.82031,Austin,US,Cedar Park
638,ASU Center,578711,,,,,,Phoenix,US,Tempe
639,TCF Center,88736,,,,,,Milwaukee,US,Appleton
641,E Center,128894,,,,,,Cheyenne,US,Rapid City
642,SBC Center,441756,,,,29.4632876,-98.3855702,San Antonio,US,Kirby
643,CW Center,3866884,500.0,112â€“50  Springfield Blvd,11429,40.7041899,-73.74059,New York,US,Queens
644,LGBT Center,4236649,,1118 N. McCadden Place,90038,34.09176,-118.33712,Los Angeles,US,Los Angeles
645,T&T Center,578941,,,,,,Oklahoma City,US,Oklahoma City
648,B Center,73733,,,,,,Philadelphia,US,Philadelphia
649,SBC Center,330606,,,,,,San Antonio,US,San Antonio
650,BCM Center,340121,,,,,,Charlotte,US,Spartanburg
651,E Center,4190089,,710 Edwards Drive,76548,31.08278,-97.64727,Harker Heights,US,Harker Heights
652,SEED Center,2553014,,1917 Bay St.,90021,34.0318714,-118.2334374,Los Angeles,US,Los Angeles
653,STV Center,2826983,,,,28.5383355,-81.3792365,Orlando,US,Orlando
654,NEO Center,3016429,,,,39.2190608,-121.0610606,Grass Valley,US,Grass Valley
655,High Noon Saloon,2946,400.0,701a East Washington Avenue,53703,43.0797373,-89.3764856,Madison,US,Madison
656,High Noon Saloon,1251236,,297 W Main St Norwich CT,06360,41.5228975,-72.0891405,Mashantucket,US,Norwich
657,High Noon Saloon,1377781,,110 Jordan Blvd.,37421,35.0467862,-85.1633599,Chattanooga,US,Chattanooga
658,Grinders High Noon Saloon,3322379,,,,39.3111112,-94.9224637,Leavenworth,US,Leavenworth
659,High Noon Saloon,3506759,,,,38.9041402,-89.9253233,St Louis,US,Madison
660,Wkhx High Noon Saloon,748416,,,,,,Atlanta,US,Atlanta
661,High Noon Saloon,4139599,,701 E Washington Ave,53703,43.07979,-89.37643,Madison,US,Madison
662,Island View Casino,725701,,3300 West Beach Boulevard,39501,30.363603,-89.103217,Mobile,US,Gulfport
663,"Grandstand, Kansas State Fair",89978,,,67502,38.1116209,-97.9374948,Wichita,US,Hutchinson
664,Hi-Tone Cafe,1319031,,412-414 N. Cleveland,38104,35.1497562,-90.014279,Memphis,US,Memphis
665,Hi-Tone Cafe - Old Location,98464,,1913 Poplar Ave.,38104,35.1423347,-89.9966939,Memphis,US,Memphis
666,"Small Room, Hi-Tone Cafe",3428724,,,,35.1495343,-90.0489801,Memphis,US,Memphis
667,Paris Theatre - Portland,4336076,,,97209,45.5267,-122.68805,Portland,US,Portland
668,Paris Theatre,3446709,,6 SW 3rd Ave,97204,45.52287,-122.67293,Portland,US,Portland
669,New Paris Theatre,4232944,,,97204,45.51696,-122.67329,Portland,US,Portland
670,The Wharf Amphitheater,4079549,,23325 Wharf Lane,36561,30.29388,-87.62528,Mobile,US,Orange Beach
671,Athenaeum Theatre,2147,,2936 North Southport Avenue,60657,41.93545,-87.66387,Chicago,US,Chicago
673,The Athenaeum Theatre,3884249,,32 N. 4th St.,43215,39.96377,-82.99602,Columbus,US,Columbus
674,Basile Theatre at the Historic Athenaeum,3211443,,407 East Michigan St.,46204,39.77375,-86.15028,Indianapolis,US,Indianapolis
676,Lyric Room,2565644,,231 N. Broadway,54303,44.5189566,-88.0203624,Milwaukee,US,Green Bay
677,Orpheum Theatre - Tampa,2531,720,1915 E. Seventh Ave.,33605,27.96002,-82.4374,Tampa,US,Tampa
678,The Vogue Theatre,1273,1000.0,6259 N. College Ave,46220,39.86921,-86.14574,Indianapolis,US,Indianapolis
679,The Vogue,654911,,117 E. Wooden Ave.,98816,47.8402159,-120.0184061,Chelan,US,Chelan
680,The Vogue Room,3700174,,312 Piasa Street,62002,38.8915427,-90.1867792,St Louis,US,Alton
681,The Vogue,4113009,,"The Vogue, 247 Broad Street",30161,34.25386,-85.17318,Rome,US,Rome
682,The Southgate House Revival - The Lounge,2062924,,111 East 6th Street,41071,39.092106,-84.493129,Cincinnati,US,Newport
683,Military Aviation Museum,3724389,,1341 Princess Anne Road,23457,36.67896,-76.02819,Norfolk,US,Virginia Beach
684,Hershey Lodge,1247911,,325 University Drive,17033,40.26967,-76.67682,Baltimore,US,Hershey
685,Rupp Arena,974,,432 West Vine Street,40507,38.0491448,-84.5010157,Lexington,US,Lexington
686,Lazy Gators,1440343,,132 Sweet William Road,65049,38.20837,-92.74858,Springfield,US,Lake Ozark
687,Shady/Lazy Gators,3924979,,132 Sweet William Rd,65049,38.2083315,-92.7485177,Springfield,US,Lake Ozark
688,Temple Live,3627764,,200 N. 11th St.,72901,35.38616,-94.41919,Tulsa,US,Fort Smith
690,Live Oak Park,3575334,,10144 Bogue St.,91780,34.1028097,-118.0478966,Los Angeles,US,Temple City
691,"Ameristar Casino, Resort & Spa",802091,,1 Ameristar Blvd,63301,38.76738,-90.48443,St Louis,US,Saint Charles
692,"Great Lawn, Central Park",129540,60000,,10021,40.77007,-73.95802,New York,US,New York
693,Kay Yeager Coliseum,1532,,1000 Fifth St.,76301,33.91358,-98.49674,Dallas - Fort Worth,US,Wichita Falls
694,Nile Theatre,4012479,,,85210,33.39026,-111.84493,Mesa,US,Mesa
695,Revolution Live,408111,1300.0,100 SW 3rd Ave,33312,26.12118,-80.14633,Fort Lauderdale,US,Fort Lauderdale
697,Revolution Live Outdoors,2511199,,100 SW 3rd Avenue,33312,26.1211731,-80.1463306,Fort Lauderdale,US,Fort Lauderdale
699,Buell Theatre,619801,,"Denver Performing Arts Complex, 1400 Curtis St.",80202,39.74468,-104.99807,Denver,US,Denver
700,South Side Ballroom at Gilley's,2262874,3000,1135 S. Lamar St.,75215,32.768777,-96.797987,Dallas - Fort Worth,US,Dallas
701,American Bank Center Arena,3179199,,1901 N. Shoreline Blvd,78401,27.8082664,-97.3938523,Corpus Christi,US,Corpus Christi
702,State Theatre,51216,,609 Congress St,04101,43.65391,-70.26364,Portland,US,Portland
703,Allentown Fairgrounds,15588,,North 17th Street & West Chew Street,18104,40.6007854,-75.4942274,Philadelphia,US,Allentown
704,"Agricultural Hall, Allentown Fairgrounds",45086,,,,,,Philadelphia,US,Allentown
705,Zydeco,11054,1650.0,2001 15th Avenue South,35205,33.4971932,-86.7932486,Birmingham,US,Birmingham
706,Zydeco Cruise,574126,,,,,,New Orleans,US,New Orleans
707,Zydeco's,2991623,,9 E. Main St,46158,39.612469,-86.3744789,Mooresville,US,Mooresville
709,Cascade Zydeco,877451,,,,,,Portland,US,Portland
710,Gator By the Bay Zydeco,2874528,,2171 India St # E,92101,32.7271244,-117.1695021,San Diego,US,San Diego
711,Neon Leon's Zydeco Club,3199828,,10350 W Yulee Dr.,34448,28.7877991,-82.6055289,Tampa,US,Homosassa
712,Zydeco's,2029684,,,,,,Denver,US,Denver
713,Zydeco Downtown,2077854,,208 Wolfe St.,27601,35.7761861,-78.6362721,Raleigh,US,Raleigh
714,Cajun/zydeco Showcase,2540064,,,,29.9510658,-90.0715323,New Orleans,US,New Orleans
715,Zydeco Dance Party,1897288,,,,,,SF Bay Area,US,Palo Alto
716,Carnahan Hall,2702173,,2200 Elmwood Suite A6,47901,40.43112,-86.87191,Indianapolis,US,Lafayette
717,Murmrr Theatre,3585134,,17 Eastern Pkwy,11238,40.6734,-73.96786,New York,US,Brooklyn
718,The Mohawk-austin,4012459,,,78701,30.27292,-97.74439,Austin,US,Austin
719,The Mohawk Austin,3824484,,,78701,30.2729209,-97.7443863,Austin,US,Austin
724,MOSQUE #3,2492534,,4202 TEUTONIA AVE,,43.093113,-87.940219,Milwaukee,US,Milwaukee
726,S.T.A.G.E. 3,2727628,,240 E 123rd Street,10035,40.801377,-73.9350819,New York,US,Harlem
727,Flounder's Chowder House,4217099,,800 Quietwater Beach Rd,32561,30.33406,-87.13999,Pensacola Beach,US,Pensacola Beach
728,Flounder's Chowder House,3848269,,,,,,Mobile,US,Pensacola
729,Flounder's Chowder House,4336676,,,32561,30.35714,-87.16386,Santa Rosa County,US,Gulf Breeze
730,"Shreveport Municipal Memorial Auditorium,",4037229,,,,,,Shreveport,US,Shreveport
731,Meyer Theatre,15337,,117 South Washington Street,54301,44.51375,-88.01637,Milwaukee,US,Green Bay
732,Meyer Theatre,444001,,,,,,Allouez,US,Allouez
733,"Pearson Theatre, Meyer Sound",3096924,,2837 10th Street,94710,37.8546146,-122.2886428,SF Bay Area,US,Berkeley
734,Taper Auditorium,4043019,,,98101,47.60849,-122.33641,Seattle,US,Seattle
735,"S. Mark Taper Foundation Auditorium, Benaroya Hall",502181,,200 University St.,98111,47.60783,-122.33755,Seattle,US,Seattle
736,"Los Angeles Central Library, Mark Taper Auditorium",1190521,,,,,,Los Angeles,US,Los Angeles
737,S. Mark Taper Auditorium,99087,,,,,,Seattle,US,Seattle
738,Theatre Three,3390624,,,75201,32.78633,-96.79625,Dallas - Fort Worth,US,Dallas
739,Nationwide Arena,522,,200 West Nationwide Boulevard,43215,39.9694,-83.00636,Columbus,US,Columbus
740,"Red, White & Boom - Nationwide Arena Plaza Stage",2684853,,200 W. Nationwide Blvd,43215,39.9693512,-83.0063849,Columbus,US,Columbus
741,River City Casino,957166,,777 River City Casino Boulevard,63125,38.5308058,-90.2644853,St Louis,US,St Louis
742,River City Casino and Hotel,2681598,,777 River City Casino Blvd,63125,38.53081,-90.26449,St Louis,US,St Louis
743,"Judy's Velvet Lounge, River City Casino",987371,,777 River City Casino Boulevard,,38.5305484,-90.2644903,St Louis,US,St Louis
744,Hoosier Dome,46854,,1627 Prospect St,46203,39.752032,-86.131158,Indianapolis,US,Indianapolis
745,Cone Denim Entertainment Center,2788338,,,,,,Greensboro,US,Greensboro
746,The Cubby Bear,1218,,956 West Addison Street,60613,41.9472517,-87.6540783,Chicago,US,Chicago
747,Cubby Bear North,6603,,21661 N. Milwaukee Av.,60069,42.1791653,-87.9253277,Chicago,US,Lincolnshire
748,Cubby Bear Wrigleyville,1037436,,1059 W. Addison,60660,41.9470978,-87.656758,Chicago,US,Chicago
749,Cubby Bear Chicago,2010279,,1059 W. Addison,,41.9470978,-87.656758,Chicago,US,Chicago
750,Cubby Bear Lounge,1068091,,,,,,Chicago,US,Chicago
751,"Pepsi Grandstand, Rockingham County Fair",1876363,,4808 S. Valley Pike,22801,38.386,-78.92746,Richmond,US,Harrisonburg
752,The Funhouse at Mr. Small's,2567349,800.0,400 Lincoln Ave.,15209,40.4808658,-79.9722298,Pittsburgh,US,Millvale
753,The Mr. Roboto Project / the Funhouse at Mr. Smalls / Cafe Verona,4247964,,Pittsburgh,15224,40.4672,-79.94445,Pittsburgh,US,Pittsburgh
754,Cheyenne Civic Center,1204,,2101 O'Neil Ave,82001,41.13537,-104.82244,Cheyenne,US,Cheyenne
755,Rushmore Plaza Civic Center,31743,,44 Mt. Rushmore Rd.,57701,44.08472,-103.22969,Cheyenne,US,Rapid City
756,Rushmore Plaza Civic Center Arena,682171,,444 Mt. Rushmore Rd. North,57701,44.088448,-103.224949,Cheyenne,US,Rapid City
757,Civic Center Park,902821,,201 Laporte Ave.,80521,40.5884231,-105.0793968,Cheyenne,US,Fort Collins
758,Laramie Plains Civic Center Theatre,1204311,,710 Garfield Street,82070,41.30977,-105.58832,Cheyenne,US,Laramie
759,Civic Center Park Area,3346869,,North Howes and Laporte Ave,80524,40.5889608,-105.080684,Cheyenne,US,Fort Collins
762,Epic Theatre,602981,,2855 Johnson Dr .,93003,34.2484587,-119.1962212,Los Angeles,US,Ventura
763,Majestic Ventura Theater,13452,1200.0,26 S. Chestnut St.,93001,34.2804444,-119.2914354,Los Angeles,US,Ventura
764,The Flying H Group Theatre Company,2909323,,6368 Bristol Rd.,93003,34.2535852,-119.2037078,Los Angeles,US,Ventura
765,Lake Tahoe Outdoor Arena at Harvey's,31788,,18 Highway 50,89449,38.96035,-119.94292,Reno,US,Stateline
766,Harveys Lake Tahoe Outdoor Arena,3879584,,,,,,Reno,US,Stateline
767,Shenandoah County Fairgrounds,737766,,300 Fairground Rd.,22664,38.871,-78.5217,Woodstock,US,Woodstock
768,"Terry Fator Theatre, Mirage Hotel & Casino",821031,,3400 S. Las Vegas Blvd.,89109,36.12059,-115.17238,Las Vegas,US,Las Vegas
769,Soiled Dove,18561,,7401 E. 1st Ave,80230,39.71899,-104.90129,Denver,US,Denver
770,Soiled Dove Underground,562496,500.0,7401 E. 1st Ave,80230,39.71894,-104.90115,Denver,US,Denver
771,Soiled Dove Saloon,1499243,,308 N. Rampart,,29.9574597,-90.0707713,New Orleans,US,New Orleans
772,The Soiled Dove,133423,,,,,,Denver,US,Aurora
773,Rushmore Plaza Civic Center,31743,,44 Mt. Rushmore Rd.,57701,44.08472,-103.22969,Cheyenne,US,Rapid City
774,Rushmore Plaza Civic Center Arena,682171,,444 Mt. Rushmore Rd. North,57701,44.088448,-103.224949,Cheyenne,US,Rapid City
775,West Virginia State Fairgrounds,237768,,947 Maplewood Ave,24901,37.77767,-80.46342,Charleston,US,Lewisburg
776,West Virginia Fairgrounds,17106,,107 W Fair St,24901,38.4385,-81.55417,Charleston,US,Charleston
777,Thrasher-Horne Center for the Arts,680616,,283 College Drive,32065,30.11854,-81.77212,Jacksonville,US,Orange Park
778,Ponyboy,4017074,,632 Manhattan Ave,,40.72398,-73.95079,New York,US,Brooklyn
779,Ponyboy OKC,4337925,120.0,423 NW 23rd St,73103,35.49342,-97.52009,Oklahoma City,US,Oklahoma City
780,Ponyboy,4337923,,,73103,35.49007,-97.51931,Oklahoma City,US,Oklahoma City
781,The Canyon Agoura Hills,30102,1000,28912 Roadside Drive,91301,34.14403,-118.75487,Los Angeles,US,Agoura Hills
782,Beat Kitchen,212,275.0,2100 West Belmont,60618,41.939803,-87.680948,Chicago,US,Chicago
785,CONSTELLATION ROOM,1484608,,3503 South Harbor Boulevard,92704,33.69984,-117.91945,Los Angeles,US,Santa Ana
792,EXPRESS LIVE!,777,2200.0,405 Neil Avenue,43215,39.96969,-83.00978,Columbus,US,Columbus
794,STAGE AE,1152511,5500.0,400 North Shore Drive,15212,40.4459,-80.01151,Pittsburgh,US,Pittsburgh
797,THE GARAGE,68388,,75 Civic Center Parkway,55337,44.7657691,-93.2743603,Twin Cities,US,Burnsville
821,BAR DKDC,2328159,,964 South Cooper,38104,35.1194215,-89.9908018,Memphis,US,Memphis
824,STAR BAR,48443,,268 Main Street,84060,40.6420727,-111.4948349,Salt Lake City,US,Park City
832,Sunlight Supply Amphitheater,63084,,17200 NE Delfel Rd.,98642,45.746432,-122.666113,Vancouver,US,Ridgefield
833,Bijou Theatre,1156,,803 South Gay Street,37902,35.96234,-83.9170089,Knoxville,US,Knoxville
834,Bijou Theatre,1577604,,275 Fairfield Ave.,06604,41.17855,-73.19225,Bridgeport,US,Bridgeport
835,U.s. Cellular Stage at the Bijou Theatre,3145209,,,37902,35.96412,-83.92017,Knoxville,US,Knoxville
836,Bijou Theatre - Knoxville,4246819,,803 S. Gay St.,37902,35.96235,-83.9171,Knoxville,US,Knoxville
837,Macon Centreplex Coliseum,498926,,200 Coliseum Drive,31217,32.84451,-83.61744,Atlanta,US,Macon
838,The UC Theatre,3169469,,2036 University Ave,94704,37.87161,-122.26998,SF Bay Area,US,Berkeley
841,The UC Theatre Taube Family Music Hall,4031404,,2036 University Avenue,,37.87182,-122.26976,SF Bay Area,US,Berkeley
842,Clay Center for the Arts and Sciences of West Virginia,1481,,1 Clay Square,25301,38.34853,-81.62984,Charleston,US,Charleston
843,"Lyell B. Clay Concert Theatre, WVU Creative Arts Center",32738,1440.0,Monongahela Boulevard,26506,39.63928,-79.97013,Pittsburgh,US,Morgantown
844,Clay County Regional Events Center,15537,,800 West 18th Street,51301,43.1555837,-95.1560651,Sioux Falls,US,Spencer
845,"Maier Foundation Performance Hall, Clay Center",30679,,1112 Washington St. E,25339,38.34856,-81.6291,Charleston,US,Charleston
846,Morean Center for Clay,3473454,,420 22nd Street South,33712,27.7673208,-82.6623049,St Petersburg,US,Saint Petersburg
847,Clay Center Community High School,4286364,,1630 9th St,67432,39.38629,-97.11735,Clay Center,US,Clay Center
848,First United Methodist Church,2079789,,,,,,Clay Center,US,Clay Center
849,Coffeehouse,1184791,,602 Clark,,39.3793289,-97.1245133,Clay Center,US,Clay Center
850,Evangelical Covenant,415526,,,,,,Clay Center,US,Clay Center
851,Valentine's Banquet,2836768,,921 5th St,,39.3785402,-97.1264876,Clay Center,US,Clay Center
852,Common Ground Ministries,2206548,,705 5th Street,67432,39.3763125,-97.1264568,Clay Center,US,Clay Center
853,The Rex Theater,1548328,,519 Court Street,67432,39.3772933,-97.1261077,Clay Center,US,Clay Center
854,Clay County Event Center,4164599,,"800, W 18th St",51301,43.15375,-95.15559,Sioux Falls,US,Spencer
855,Clay Art Center,2969833,,40 Beech St.,10573,40.996259,-73.663292,Port Chester,US,Port Chester
856,The Paramount,78197,,,,,,Santa Fe,US,Santa Fe
857,The Paramount,4337583,,2708 East Cesar E Chavez Avenue,90033,34.04487,-118.20391,Los Angeles,US,Los Angeles
859,The Paramount Cafe,2120679,,1607 Capitol Avenue,82001,41.133215,-104.815133,Cheyenne,US,Cheyenne
860,Paramount Center For The Arts,4005619,,,56301,45.46513,-94.25156,Twin Cities,US,Saint Cloud
861,The Paramount Theatre Centre & Ballroom,216003,,1124 Meridian St.,46016,40.10446,-85.67879,Indianapolis,US,Anderson
862,The Paramount @ Crown & Anchor,1946824,,247 Commercial Street,02657,42.0500729,-70.1873685,Provincetown,US,Provincetown
865,The Paramount,2745093,,,,40.7127837,-74.0059413,New York,US,New York
866,The Paramount Club,64861,,,,,,Amarillo,US,Amarillo
867,The Paramount Theatre,448026,,,,,,Charlotte,US,Charlotte
868,The Paramount Room,4330784,,701 W. Sheridan,73102,35.46674,-97.52443,Oklahoma City,US,Oklahoma City
869,The Ramkat,3787739,,170 West Ninth Street,27101,36.10497,-80.24621,Winston-Salem,US,Winston-Salem
870,The Ramkat Theatre,4086209,,170 W. 9th St,,36.10497,-80.24621,Winston-Salem,US,Winston-Salem
871,"The Music Box, Borgata Hotel & Casino",28810,,1 Borgata Way,08401,39.3770706,-74.4345188,Philadelphia,US,Atlantic City
872,Paddy's on Misquamicut Beach,3526299,,159 Atlantic Ave.,02891,41.322,-71.80871,Providence,US,Westerly
873,"Kupferberg Center for the Arts, Queens College",1550073,,65-30 Kissena Boulevard,11367,40.73715,-73.81478,New York,US,Flushing
874,"Colden Auditorium, Kupferberg Center for the Arts",74889,,"Queens College, 65-30 Kissena Blvd.",11367,40.7371494,-73.8147771,New York,US,Flushing
875,"LeFrak Concert Hall, Kupferberg Center for the Arts",128088,,65-30 Kissena Blvd.,11367,40.7371494,-73.8147768,New York,US,Flushing
876,"Eisenhower Theater, Kennedy Center",106578,,"2700 F St., NW",20566,38.89606,-77.0552,Washington,US,Washington
877,Connor Palace - Cleveland,4212294,,,44115,41.49634,-81.67199,Cleveland,US,Cleveland
878,"Connor Palace, PlayhouseSquare",2719418,,1615 Euclid Ave.,44115,41.5014684,-81.6804324,Cleveland,US,Cleveland
879,Connor Palace at Playhouse Square,3555484,,1615 Euclid Ave,44115,41.5014684,-81.6804324,Cleveland,US,Cleveland
880,Connor Palace - Playhouse Square - Tri C Jazz Festival,3287334,,1615 Euclid Ave,44115,41.5014684,-81.6804324,Cleveland,US,Cleveland
881,Bilheimer Capitol Theatre,504256,,405 Cleveland St.,33767,27.96527,-82.80102,St Petersburg,US,Clearwater
882,Fox Theater,11544,,2001 H St.,93301,35.37756,-119.02153,Bakersfield,US,Bakersfield
883,August Hall,3801954,,420 Mason St,94102,37.78759,-122.40961,SF Bay Area,US,San Francisco
884,Westbrook Performing Arts Center,3174399,,"471 Stroudwater St., ME",04092,43.66501,-70.34535,Portland,US,Westbrook
885,Prudential Center,706,18711.0,165 Mulberry Street,07102,40.733747,-74.170268,Newark,US,Newark
886,"Prudential Hall, New Jersey Performing Arts Center",103757,,1 Center Street,07102,40.7401487,-74.1673386,Newark,US,Newark
887,Prudential Center,207068,,800 Boylston Street,02115,42.3475103,-71.0867365,Boston / Cambridge,US,Boston
888,Boylston Plaza at Prudential Center,1330521,,Boylston St.,02115,42.347371,-71.0876522,Boston / Cambridge,US,Boston
889,Prudential Center Courtyard,3039299,,Boylston St.,02115,42.347386,-71.087495,Boston / Cambridge,US,Boston
890,Barnes & Noble Prudential Center,4000154,250.0,800 Boylston St #179,02199,42.34731,-71.0819,Boston / Cambridge,US,Boston
891,Baxter Arena,3032624,,2425 S. 67th St,68182,41.23882,-96.01459,Omaha,US,Omaha
892,The Empty Bottle,251,400.0,1035 North Western Avenue,60622,41.9003921,-87.6867877,Chicago,US,Chicago
893,Bottle & Cork,1545,,1807 Highway One,19971,38.6929055,-75.0749491,Wilmington,US,Dewey Beach
894,Bottle Bar East,2453949,,1308 Frankford Ave,19125,39.970471,-75.134725,Philadelphia,US,Philadelphia
895,Bottle & Barrel,3748454,,,,38.8906038,-90.1842764,St Louis,US,Alton
897,Tap & Bottle,2712068,,403 N 6th Ave,85705,32.2265903,-110.9688321,Tucson,US,Tucson
898,Beal Street Bottle Club,1234936,,70 Beal St Pkwy,32548,30.4202272,-86.6141416,Fort Walton Beach,US,Fort Walton Beach
899,The Bottle Cap,1133046,,1128 Simonton St.,33040,24.5501127,-81.7967256,Key West,US,Key West
900,The Southside Beer Garden & Bottle Shop,3775474,,2108 S Broad st,27127,36.0710378,-80.242811,Winston-Salem,US,Winston-Salem
901,Broken Top Bottle Shop,2053909,,"1740 NW Pence Lane, Suite 1",97701,44.063409,-121.339022,Salem,US,Bend
902,Bottle Tree,2181199,,3719 3rd Ave S,35222,33.5213386,-86.7784672,Birmingham,US,Birmingham
903,Bottle Rocket,52706,,,,,,Toledo,US,Toledo
904,Tony's Original Deli and Bottle Shop,3032764,,613 S Anaheim Blvd,92805,33.8283149,-117.911859,Los Angeles,US,Anaheim
905,Michigan By the Bottle,2846483,,29932 Woodward Ave,48073,42.5102391,-83.178632,Detroit,US,Royal Oak
906,Basquiat's Bottle,3960479,,1198 Fulton St.,11216,40.6804147,-73.952691,New York,US,Brooklyn
907,Bread and Bottle,2335884,,7496 South Broadway,,41.9950257,-73.8756376,New York,US,Red Hook
908,Bottle and Tap,3135514,,11445 Coursey Blvd,70816,30.41204,-91.05444,Baton Rouge,US,Baton Rouge
909,Bottle Cap Barn,1165461,,3600 Rogers Dr.,73013,35.6026049,-97.452381,Oklahoma City,US,Edmond
910,Michigan by the Bottle Tasting Room,2691293,,45645 Hayes,48315,42.6319464,-82.9734956,Utica,US,Utica
911,Franklin's Bottle Shop,2355864,,241 Liberty St NE,97301,44.941696,-123.038485,Salem,US,Salem
913,Bottle and Barrel,1254356,,208 S. Barstow St,,44.811299,-91.4999614,Twin Cities,US,Eau Claire
914,Local 604 Bottle Shop,4017894,,604 Haywood Rd Suite 2,28806,35.57858,-82.58804,Knoxville,US,Asheville
915,Volcanic Bottle Shoppe,1618563,,1410 12th Street,,45.699835,-121.52386,Hood River,US,Hood River
917,The Brass Bottle,2484204,,201 Central Avenue,11237,40.6977154,-73.9244794,New York,US,New York
919,Bottle Works,3556359,,411 Third Avenue,15905,40.3398368,-78.9262578,Johnstown,US,Johnstown
922,Broken Bottle Brewery,2263414,,9421 Coors Blvd NW,87114,35.187539,-106.6621289,Albuquerque,US,Albuquerque
923,Empty Bottle Saloon,331566,,30 W. Main Street,10940,41.4448915,-74.4212228,Middletown,US,Middletown
924,The Bottle Shop,4270469,,617 W Main,,42.59193,-88.43204,Lake Geneva,US,Lake Geneva
925,Time in a Bottle,842901,,344 Orange St.,92374,34.058537,-117.182249,Los Angeles,US,Redlands
928,MT Bottle,1495503,,3940 Shelbyville Hwy,,35.7599688,-86.4040889,Nashville,US,Murfreesboro
929,Michigan By The Bottle - Auburn Hills,3339869,,3384 Auburn Road,,42.6336751,-83.2208895,Detroit,US,Auburn Hills
930,Lightning in a Bottle,4186024,,13601 Ironbark Rd,93311,35.2272,-119.26171,Bakersfield,US,Bakersfield
932,The Dusty Bottle,1999214,,134 Main Street,,43.9938843,-72.1281507,Bradford,US,Bradford
933,Glass & Bottle Bistro,3491379,,7819 Center Blvd SE,98065,47.5298043,-121.8729826,Snoqualmie,US,Snoqualmie
936,Bottle Cap Restaurant,1874638,,1707 Powell St. (at Columbus),94133,37.8004056,-122.4108554,SF Bay Area,US,San Francisco
937,Bottle and Cork - Dewey Beach,3213023,,,,39.6837226,-75.7496572,Wilmington,US,Newark
941,Clever Bottle,1462858,,2222 Second Avenue,98121,47.6138213,-122.3450055,Seattle,US,Seattle
942,Chop Shop,1400313,,399 E. 35th St.,28205,35.2473898,-80.8062281,Charlotte,US,Charlotte
943,Chop Shop,3386364,,2033 W. North Ave,60647,41.91018,-87.6788,Chicago,US,Chicago
944,1st Ward / Chop Shop,2450009,,2033 W North Ave,60647,41.91025,-87.67878,Chicago,US,Chicago
945,Reno's Chop Shop,49124,,210 N. Crowdus St.,75226,32.78477,-96.78364,Dallas - Fort Worth,US,Dallas
946,Orchard Street Chop Shop,761066,,1 Orchard St.,03820,43.195657,-70.8767615,Dover,US,Dover
947,The Chop Shop,1219171,,32 Waverley St.,01702,42.280129,-71.403535,Worcester,US,Framingham
948,Chop Shop Pub,2337929,,920 Lafayette Rd,03874,42.9032837,-70.8676676,North Hampton,US,North Hampton
949,The Chop Shop,951436,,,,,,Venice,US,Venice
950,Chop Shop Live,3975224,,309 south oak street,76262,32.9966373,-97.2306874,Keller,US,Roanoke
951,Chop Shop and Evening Muse,1911063,,North Davidson Street (35th & 36th Cross Streets),28202,35.293834,-80.8303237,Charlotte,US,Charlotte
952,Chop Shop Bar & Grill,2463434,,4351 Valley Fair St,93063,34.272906,-118.709819,Los Angeles,US,Simi Valley
954,Chop's Shop,4110129,,8405 Rochester Rd. (Gasport),,43.19601,-78.57305,Buffalo,US,Lockport
956,Morris Chop Shop,4324284,,701 Liberty St,60450,41.36214,-88.42361,Morris,US,Morris
957,The Chop Shop,1792163,,,,,,Methuen,US,Salem
958,The Chop Shop,1634783,,910 5th Ave N,,27.777259,-82.6474099,St Petersburg,US,St Petersburg
959,Dickies Chop Shop,1438853,,7820 Floyd Lane,30506,34.251446,-83.992118,Atlanta,US,Gainesville
960,TYS Chop Shop,3774424,,,,28.0394654,-81.9498042,Tampa,US,Lakeland
961,The Chop Shop,4070594,,12 Pierson St.,95401,38.43643,-122.72425,Santa Rosa,US,Santa Rosa
962,The Chop Shop,967546,,,,,,Cape Coral,US,Fort Myers
964,Original ChopShop Co.,3178334,,222 E. University Dr.,85281,33.4222665,-111.9359047,Phoenix,US,Tempe
965,Chop Chop,281516,,,,,,Columbus,US,Columbus
968,The Chop Shop at Hi Cal Motorsports,3558669,,1895 Golden Mile Rd,18854,41.7735956,-76.4028172,Towanda,US,Towanda
969,Shrine Expo Hall,34391,5000,700 West 32nd Street,90007,34.02375,-118.28105,Los Angeles,US,Los Angeles
970,3rd & Lindsley Bar and Grill,5840,1000.0,816 3rd Avenue South,37210,36.1521634,-86.7699106,Nashville,US,Nashville
971,3rd & Lindsley,2091279,,818 3rd Ave. S,37210,36.1520759,-86.770085,Nashville,US,Nashville
972,3rd Wheel,2796713,299.0,1634 Main St,83501,46.41702,-117.0082,Lewiston,US,Lewiston
973,3rd & Girard,2481869,,1176 North 3rd Street,19123,39.969632,-75.141769,Philadelphia,US,Philadelphia
974,3rd Street Dive,163843,,440 South 3rd Street,,38.2521166,-85.7556485,Louisville,US,Louisville
975,3rd Street Pub,1854728,,314 SE 3rd Street,97701,44.05357,-121.30246,Salem,US,Bend
976,3rd Street Promenade,88396,,1200-1400 3rd Street,90401,34.0155216,-118.4958858,Los Angeles,US,Santa Monica
978,3rd Street Live (formally Aces Comedy Club),3202638,,41915 3rd St,92590,33.4937401,-117.1472379,San Diego,US,Temecula
979,51 3rd,1089576,,51 3rd Street,12180,42.730544,-73.690783,Springfield,US,Troy
980,3rd Street Live,11199,,1202 1/2 Third Street Southeast,52401,41.9701501,-91.6581077,Des Moines,US,Cedar Rapids
981,Pig 'n Whistle on 3rd,1482308,,922 3rd Avenue,,40.7593899,-73.9684421,New York,US,New York
982,3rd Place,2951958,,132 Appalachian Street,28607,36.217255,-81.682432,Winston-Salem,US,Boone
983,3rd Death Star,164208,,613 Main St.,,42.2868477,-83.7482896,Detroit,US,Ann Arbor
984,3rd Street Bar,2125224,,3rd Street,89501,39.507894,-119.9994672,Reno,US,Reno
985,3rd Ward,80337,,195 Morgan Ave,11237,40.7108748,-73.9338303,New York,US,Brooklyn
986,Thursdays on First and 3rd,2602148,,1st Avenue SW & 3rd Street SW,55902,44.0204496,-92.4645165,Twin Cities,US,Rochester
987,3rd and 3rd,2865963,,301 NE 3rd Ave,33444,26.467296,-80.070026,Fort Lauderdale,US,Delray Beach
988,3rd Floor Cantina,85955,,,,,,Austin,US,Bryan
990,3rd St Pub,3514689,,314 SE 3rd st,97702,44.0472031,-121.3024818,Salem,US,Bend
991,3rd & Lindsley Theater,1638718,,818 3rd Avenue South,37210,36.1521315,-86.7698468,Nashville,US,Nashville
992,3rd Coast Showcase at G&s Lounge,1680023,,2420 South 1st Street,,30.2413955,-97.7601922,Austin,US,Austin
993,The Venue on 3rd,2471404,,905 E. 3rd Street,45402,39.762015,-84.179169,Dayton,US,Dayton
994,Delancey's on 3rd,2409649,,810 SOUTH 3RD,98059,47.4799,-122.20614,Seattle,US,Renton
995,E3rd Steakhouse,983076,,734 E. Third St.,90013,34.0456229,-118.2367589,Los Angeles,US,Los Angeles
996,3rd Floor Outside the Market,1438478,,395 Santa Monica Place,90401,34.0137849,-118.4942327,Los Angeles,US,Santa Monica
997,Patrick's on 3rd,2114289,,125 S. 3rd Street,,44.3262046,-93.9573873,Twin Cities,US,St Peter
998,3rd & Linsley,1111036,,818 3rd Ave S,37210,36.1522106,-86.7698586,Nashville,US,Nashville
999,3rd & Lindley,710026,,,,,,Nashville,US,Nashville
1000,3rd & Army,2689308,,"Behind the Bus Depot, 3rd and Chavez",94107,37.7618242,-122.3985871,SF Bay Area,US,San Francisco
1001,Back Bar - 3rd St.,2603548,,21 N. 3rd Street,95112,37.3374564,-121.8887263,SF Bay Area,US,San Jose
1002,3rd Street Park,317791,,,,,,Indianapolis,US,Bloomington
1003,The 3rd Degree,265676,,,,,,New York,US,Asbury Park
1004,The Cloverdale Playhouse - Joe Thomas Jr. 3rd Tuesday Guitar Pull,3082919,,960 Cloverdale Road,36106,32.3524483,-86.2925997,Montgomery,US,Montgomery
1005,4795 Sandhill Rd Unit 3,4011484,,4795 SANDHILL Rd,,36.10194,-115.09242,Las Vegas,US,Las Vegas
1006,3rd Floor Underground (3FU),91140,,,,,,Bridgeport,US,Kingston
1007,3rd & Walnut,803291,,,,39.952335,-75.163789,Philadelphia,US,Philadelphia
1009,E. 3rd,69988,,,,,,Los Angeles,US,Los Angeles
1010,3rd Rock,131035,,,,,,Twin Cities,US,Superior
1011,3rd Eye (sol)ation Art Gallery,2463354,,1501 Broadway,11221,40.687249,-73.917631,New York,US,Brooklyn
1012,3rd St Arts,242473,,711 Third Street Sw,87102,35.0783974,-106.6515551,Albuquerque,US,Albuquerque
1013,3rd Street Blues,808991,,,,,,Reno,US,Reno
1014,3 rd & Girard street,2758633,,"1176 N. Third St., Philadelphia",,39.969632,-75.141769,Philadelphia,US,Philadelphia
1015,3rd Street Armory,2779003,,,,33.7489954,-84.3879824,Atlanta,US,Atlanta
1016,3rd Presbyterian Church,1949524,,3358 Mchenry Ave,,39.14714,-84.571067,Cincinnati,US,Cincinnati
1017,3rd & B Streets,560936,,,,,,Sacramento,US,Davis
1018,3rd Street Tap House,4140194,,112 N 3rd St,40004,37.80997,-85.467,Bardstown,US,Bardstown
1019,3rd Avenue Street Fair,1095466,,,,,,New York,US,New York
1020,Globe Life Park,16361,,1000 Ballpark Way,76011,32.7498334,-97.0812657,Dallas - Fort Worth,US,Arlington
1021,Cahn Auditorium,35751,,,60201,42.06001,-87.69263,Chicago,US,Chicago
1022,Lincoln Hall,513326,507.0,2424 N Lincoln Ave,60614,41.92605,-87.64975,Chicago,US,Chicago
1023,"David Geffen Hall, Lincoln Center",6204,2738.0,10 Lincoln Center Plaza,10023,40.7722992,-73.9829541,New York,US,New York
1025,"Alice Tully Hall, Lincoln Center",47825,,70 Lincoln Center Plaza,10023,40.7736978,-73.9828914,New York,US,New York
1026,Lincoln Performance Hall,2460,,"Portland State University, 1620 S.w. Park Avenue",97201,45.56588,-122.65614,Portland,US,Portland
1027,"Performance Hall, Lincoln Center",18520,,417 W. Magnolia St.,80521,40.5828994,-105.0828215,Cheyenne,US,Fort Collins
1028,"Philharmonic Hall, Lincoln Center",114527,,,,,,New York,US,New York
1029,"Frederick P. Rose Hall, Jazz at Lincoln Center",97880,,Broadway at 60th Street,10023,40.7688468,-73.9819899,New York,US,New York
1030,"Merkin Hall, Lincoln Center",285151,,,,,,New York,US,New York
1031,"Starr Theater, Alice Tully Hall, Lincoln Center",1555688,,,,,,New York,US,New York
1032,"Lincoln Recital Hall, Portland State University",17701,,"Room 75, 1620 SW Park Ave.",97201,45.51327,-122.68382,Portland,US,Portland
1033,"Theater, Lincoln Hall, University of Illinois",700891,,702 South Wright Street,61801,40.106643,-88.2283797,Champaign,US,Urbana
1034,Boxford Lincoln Hall,3459014,,561 Main St,01921,42.7071882,-71.0639065,Boxford,US,Boxford
1035,Lincoln Road Hall,3455609,200.0,79 S Lincoln Rd.,48708,43.5635798,-83.8758366,Bay City,US,Bay City
1036,"Lincoln Hall, Cornell University",3081594,,,,42.4439614,-76.5018807,Rochester,US,Ithaca
1037,Alice Tully Hall at Lincoln Center,3989579,,1941 Broadway,10023,40.7737,-73.98264,New York,US,New York
1038,"Studio Theatre, Lincoln Hall, Portland State University",2794648,,620 SW Park Ave,97201,45.5198706,-122.6803035,Portland,US,Portland
1041,Kimball Recital Hall,1857973,,1113 R Street,68508,40.8169532,-96.7040143,Lincoln,US,Lincoln
1043,Kilaga Springs Lodge Presentation Hall,3367054,,1167 Sun City Blvd.,95648,38.8811566,-121.2772854,Sacramento,US,Lincoln
1044,Devaney Hall,313741,,,,,,Lincoln,US,Lincoln
1045,Boiler Grand Hall,3749809,,"129 North 10th Street, Third Floor",68508,40.81434,-96.7077,Lincoln,US,Lincoln
1053,Bemis Hall,2100154,,15 Bedford Road,01773,42.42891,-71.30239,Boston / Cambridge,US,Lincoln
1054,Gibby's Pool Hall,1565368,,,,,,Lincoln,US,Grand Island
1056,Hall County Fair Concerts,2687533,,3932 Meadow Way Trail,68803,40.9325875,-98.3948079,Lincoln,US,Grand Island
1057,Hall County Fair - Fonner Park,4225729,,501 East Fonner Park Road,68801,40.90907,-98.33277,Lincoln,US,Grand Island
1058,Portland State University Lincoln Performance Hall,4079029,,1620 SW Park Ave,97201,45.51306,-122.68353,Portland,US,Portland
1059,Havelock Social Hall,2921678,,4538 N 62nd St,68507,40.8588273,-96.6355037,Lincoln,US,Lincoln
1060,Hard Rock CafÃ© - Louisville,754721,,424 S. Fourth St.,40202,38.25221,-85.75745,Louisville,US,Louisville
1061,Brighton Music Hall presented by Citizens Bank,1167706,300.0,158 Brighton Ave.,02134,42.35287,-71.13259,Boston / Cambridge,US,Boston
1062,Brighton Music Hall,4332219,,158 Brighton Ave,,42.35287,-71.13259,Boston / Cambridge,US,Boston
1063,Topgolf | Scottsdale,3504374,,9500 Talking Stick Way,85256,33.53856,-111.87042,Scottsdale,US,Scottsdale
1064,"Schottenstein Theatre, McCoy Center",4339475,,,,,,Columbus,US,New Albany
1065,Harrah's Showroom at Harrah's Las Vegas,1898858,,3475 Las Vegas Blvd,89109,36.11949,-115.16967,Las Vegas,US,Las Vegas
1066,The Improv Showroom at Harrah's Las Vegas,3118639,,3475 Las Vegas Blvd S,89109,36.1193098,-115.1717702,Las Vegas,US,Las Vegas
1067,Charline McCombs Empire Theatre,1387,,226 North St. Mary's Street,78205,29.4261788,-98.4912576,San Antonio,US,San Antonio
1068,Newport Music Hall,884,1700,1722 N High St,43201,39.99753,-83.00743,Columbus,US,Columbus
1069,The Queen,1458253,,500 N Market Street,19801,39.74113,-75.55028,Wilmington,US,Wilmington
1072,The Queen Mary,5722,,1126 W. Queens Hwy,90802,33.7529549,-118.1932678,Los Angeles,US,Long Beach
1108,God Save The Queen,128141,,912 S. San Pedro St.,,34.036815,-118.250338,Los Angeles,US,Los Angeles
1113,The Queen's Inn,1790758,,41139 Highway 41,93644,37.346779,-119.639931,Oakhurst,US,Oakhurst
1116,The Forest Queen,365551,,,,,,Crested Butte,US,Crested Butte
1119,Bismarck Civic Center,2737,,315 South 5th Street,58504,46.8030929,-100.783141,Fargo,US,Bismarck
1120,Fargo Civic Center,3353524,,207 4th St N,58102,46.8783457,-96.7838593,Fargo,US,Fargo
1121,Civic Center,81478,,207 4th St N,58102,46.87835,-96.78386,Fargo,US,Fargo
1122,Bismarck Civic Center Arena,74273,,,,,,Fargo,US,Bismarck
1123,Bismarck Civic Center Exhibition Hall,3052664,,,58504,46.8083268,-100.7837392,Fargo,US,Bismarck
1124,Medina Entertainment Center,66015,,500 Hwy. 55,55340,45.0454895,-93.5344621,Twin Cities,US,Medina
1125,"Riverdome, Horseshoe Casino",753116,,711 Horseshoe Blvd.,71111,32.515291,-93.737341,Shreveport,US,Bossier City
1126,Riverdome at Horseshoe Casino & Hotel - Bossier City,4012719,,,71111,32.58499,-93.69275,Shreveport,US,Bossier City
1127,Encore Theater at Wynn Las Vegas,497721,,3131 Las Vegas Blvd S,89109,36.12776,-115.16642,Las Vegas,US,Las Vegas
1128,WAMU Theater,578496,6700.0,1000 Occidental Ave S.,98134,47.59418,-122.33323,Seattle,US,Seattle
1131,A&M Theater,1282071,,563 Harrison Ave.,32401,30.1583238,-85.6606022,Tallahassee,US,Panama City
1133,WYO Theater,108278,,42 N. Main St.,82801,44.7979146,-106.9558961,Sheridan,US,Sheridan
1135,KCD Theater,1228356,460.0,4100 Sringdale Road,40241,38.307164,-85.580106,Louisville,US,Louisville
1136,IMAC Theater,7448,,370 New York Ave,11743,40.9328523,-73.8711871,Yonkers,US,Yonkers
1138,ODC Theater,34463,,3153 17th St,94110,37.7635434,-122.416463,SF Bay Area,US,San Francisco
1139,LSU Theater,321951,,11 Fraternity Ln,,30.4166018,-91.1751144,Baton Rouge,US,Baton Rouge
1142,PURE Theater,1943569,,477 King Street,29403,32.7893669,-79.9386669,Columbia,US,Charleston
1143,KRNT Theater,76025,,,,,,Des Moines,US,Des Moines
1147,WRVA Theater,88056,,,,,,Richmond,US,Richmond
1148,IMAC Theater,75369,,,,40.8681539,-73.425676,New York,US,Huntington
1149,APEX Theater,2471419,,Front St.,,32.3463786,-95.2779583,Dallas - Fort Worth,US,Tyler
1151,SUNY Theater,111217,,,,,,Yonkers,US,Oneonta
1152,ABC Theater,114048,,,,,,Dallas - Fort Worth,US,Dallas
1153,CMU Theater,104515,,,,,,Twin Cities,US,Minneapolis
1155,CMA Theater,4338778,,224 5th Ave S,37203,36.15804,-86.77596,Nashville,US,Nashville
1158,SIR Theater,89485,,,,,,Los Angeles,US,Los Angeles
1159,CIC Theater,3207613,,1422 W Irving Park,,41.9545189,-87.6651335,Chicago,US,Chicago
1161,ABC Theater,114049,,,,,,Houston,US,Houston
1162,CA Theater,54422,,,,,,San Diego,US,San Diego
1163,COHO Theater,3957704,,2257 NW Raleigh St,97210,45.534307,-122.6980327,Portland,US,Portland
1164,DOBAMA Theater,2307814,,2340 Lee Road,44118,41.495202,-81.5653789,Cleveland,US,Cleveland Heights
1165,YAM Theater,3495544,,219 Main St.,88130,34.1855288,-103.3361225,Portales,US,Portales
1166,COW Theater,2836248,,21-A Clinton,10001,40.7545449,-73.9922981,New York,US,New York
1168,Wamu Theater at Centurylink Events Center,4337152,,,,,,Seattle,US,Seattle
1169,Bert Ogden Arena,3955064,,4900 S 169,78539,26.25401,-98.17239,Brownsville,US,Edinburg
1170,"The Joint, Hard Rock Hotel & Casino",33375,4000,4455 Paradise Rd.,89169,36.10901,-115.15385,Las Vegas,US,Las Vegas
1171,Illinois State Fairgrounds,682,,801 Sangamon Avenue,62706,39.83116,-89.63834,Springfield,US,Springfield
1172,Orr Building at Illinois State Fairgrounds,2951548,,,62702,39.8264081,-89.6157473,Springfield,US,Springfield
1173,"Exposition Building, Illinois State Fairgrounds",4143044,2500.0,2561 Main st,62702,39.83295,-89.63896,Springfield,US,Springfield
1174,"Cavalcade of Music Stage, Illinois State Fairgrounds",56304,,,,,,Springfield,US,Springfield
1175,"Pork Patio, Illinois State Fairgrounds",4253094,,801 E. Sangamon Ave.,62702,39.83161,-89.64064,Springfield,US,Springfield
1176,Webster Bank Arena at Harbor Yard,1349221,,600 Main Street,06604,41.1716,-73.18762,Bridgeport,US,Bridgeport
1177,The Hi-fi Indianapolis,4011984,,,46203,39.74195,-86.12429,Indianapolis,US,Indianapolis
1178,The Hi-Fi,2632533,195.0,"1043 Virginia Ave., Ste. 4",46203,39.7527158,-86.1409954,Indianapolis,US,Indianapolis
1179,The Hi Fi,3210443,,1043 Virginia Avenue,46203,39.7525941,-86.1409285,Indianapolis,US,Indianapolis
1180,Laughlin Event Center,2504629,,500 E. Bruce Woodbury Dr.,89029,35.16102,-114.58292,Henderson,US,Laughlin
1181,Cynthia Woods Mitchell Pavilion,492,16500,2005 Lake Robbins Dr.,77380,30.16159,-95.46403,Houston,US,The Woodlands
1182,Wells Fargo Center,1079871,,3601 S Broad St,19148,39.90427,-75.17133,Philadelphia,US,Philadelphia
1183,Wells Fargo Center for the Arts,28895,,50 Mark West Springs Rd.,95403,38.493113,-122.749006,Santa Rosa,US,Santa Rosa
1184,"Wells Fargo Theatre, Colorado Convention Center",5242,5000.0,700 14th Street,80202,39.7427565,-104.9940015,Denver,US,Denver
1185,"Wells Fargo Garden, Mesa Arts Center",767416,,1 E. Main St.,85201,33.4149286,-111.8295746,Mesa,US,Mesa
1186,Wells Fargo Center,2611053,,333 S. Grand Avenue,90071,34.0527867,-118.2519974,Los Angeles,US,Los Angeles
1187,"Wells Fargo Auditorium, National Hispanic Cultural Center",506286,,1701 Fourth St. SW,87102,35.068577,-106.655629,Albuquerque,US,Albuquerque
1188,Nate Wells Fargo Center,2250269,,,,,,Wilmington,US,Newark
1189,"Carston Cabaret, Wells Fargo Center for the Arts",232423,,,95403,38.4739555,-122.7520139,Santa Rosa,US,Santa Rosa
1190,Mathewson-igt Knowledge Center - Wells Fargo Auditorium,2770848,,1664 N. Virginia St.,89557,39.5445686,-119.8159684,Reno,US,Reno
1191,Rawhide Event Center,3092014,,5700 W North Loop Rd,85226,33.27232,-111.9749,Chandler,US,Chandler
1192,Rawhide Western Town & Event Center,133083,,5700 W. North Loop Rd.,85226,33.26983,-111.98411,Chandler,US,Chandler
1193,The Social,936,450.0,54 North Orange Ave,32801,28.543145,-81.379179,Orlando,US,Orlando
1198,The Social,3854484,,3506 Academy Boulevard North,80917,38.88289,-104.75862,Colorado Springs,US,Colorado Springs
1200,The Social,4312864,,,,,,New Port Richey,US,New Port Richey
1201,The Social Room,2933088,,220 N 8th St,65201,38.95433,-92.328102,St Louis,US,Columbia
1203,The Beehive Social Club,3274404,300.0,666 South State Street,84111,40.75471,-111.88832,Salt Lake City,US,Salt Lake City
1205,The Social,102926,,,,,,Fayetteville,US,Myrtle Beach
1206,Revel - The Social,1889603,,500 Boardwalk,08401,39.361751,-74.413501,Philadelphia,US,Atlantic City
1207,The Social Lounge,1582178,,29 Gay St.,19382,39.961079,-75.604597,West Chester,US,West Chester
1211,The Social,2017779,,1715 East Olive Way,98102,47.6197398,-122.3229032,Seattle,US,Seattle
1212,The Box Social,2549264,,,,45.5234515,-122.6762071,Portland,US,Portland
1214,The Basement @ Des Moines Social Club,2988128,,901 Cherry St.,50309,41.5832755,-93.627567,Des Moines,US,Des Moines
1215,The Social Room,1530948,,527 Park Street,43215,39.9729448,-83.0047039,Columbus,US,Columbus
1218,The Box Social,766081,,2135 N Milwaukee,60647,41.919978,-87.6924257,Chicago,US,Chicago
1219,The Butchertown Social,3675689,,,,38.25266,-85.75846,Louisville,US,Louisville
1220,The Social,3505409,,208 Bank Street,06320,41.35173,-72.09631,Providence,US,New London
1222,The Architect Bar and Social House,2040264,,"108 1/2 E. Hargett St., Raleigh, NC 27601 (919) 833-4949.",27601,35.7780773,-78.6378312,Raleigh,US,Raleigh
1223,The Social,3007904,,,,35.5950581,-82.5514869,Knoxville,US,Asheville
1224,The Social Experience,1214561,,3040 S Lafountain St,46901,40.453097,-86.1270688,Indianapolis,US,Kokomo
1225,The Gaslight Social,3721279,,314 W. Midwest Road,,42.8463464,-106.3283932,Cheyenne,US,Casper
1227,The Social Lubricant Lounge/tsl,2347864,,167 NW 23 St,33127,25.7993029,-80.198308,Miami,US,Miami
1228,The Social Lubricant,2541234,,167 Northwest 23rd St,33127,25.7993029,-80.198308,Miami,US,Miami
1229,The Social at Revel Beach,2301314,,500 Boardwalk,08401,39.3617391,-74.4134928,Philadelphia,US,Atlantic City
1231,The Social Bar Lounge,1641703,,15351 E. Gale Ave,91745,34.0139305,-117.9725049,Los Angeles,US,Industry
1233,The Classon Social Club,2541089,,807 Classon Avenue,11238,40.672924,-73.960475,New York,US,New York
1236,The Social,1233771,,"1110 Market Street, Suite 101",,35.0429968,-85.30875,Chattanooga,US,Chattanooga
1237,The Social,3480624,,158 Central Ave.,97420,43.367908,-124.2137044,Coos Bay,US,Coos Bay
1243,Tin Roof - Myrtle Beach,3800529,,1410 North Ocean,29577,33.69628,-78.87489,Fayetteville,US,Myrtle Beach
1244,Elevation 27,4110259,,600 Nevan Road,23451,36.84933,-76.01938,Norfolk,US,Virginia Beach
1245,The Lyric Theatre,3164724,,1800 3rd Ave North,35203,33.51528,-86.8096,Birmingham,US,Birmingham
1247,The Lyric Theatre,3263154,,440 East Ave,14607,43.15513,-77.59247,Rochester,US,Rochester
1252,The Lyric Theatre,2758868,,320 Grove St,37774,35.74235,-84.33717,Maryville,US,Loudon
1254,Chester Fritz Auditorium,3092,,Yale Drive and University Avenue,58202,47.92227,-97.07766,Fargo,US,Grand Forks
1255,Oriental Theater,8688,,4335 W. 44th Ave.,80212,39.7767576,-105.0435938,Denver,US,Denver
1256,Oriental Theater,43214,,2230 North Farwell Avenue,53202,43.0598456,-87.885579,Milwaukee,US,Milwaukee
1257,The Old Theater,426686,,609 Broad Street,28571,35.02919,-76.6951,Oriental,US,Oriental
1259,Smith Opera House,10799,,82 Seneca St.,14456,42.867071,-76.984093,Rochester,US,Geneva
1260,New Paris Theatre,4232944,,,97204,45.51696,-122.67329,Portland,US,Portland
1261,"EagleBank Arena, George Mason University",812,10000,4500 Patriot Circle,22030,38.82675,-77.30975,Washington,US,Fairfax
1262,Fenway Park,6177,37400.0,4 Yawkey Way,05452,42.34625,-71.09817,Boston / Cambridge,US,Boston
1263,Jetblue Park at Fenway South,3170769,,,33913,26.640628,-81.8723084,Cape Coral,US,Fort Myers
1264,Veterans Memorial Coliseum,1952434,,300 N. Winning Way,97227,45.53196,-122.66951,Portland,US,Portland
1265,Wild Bill's,2493,,2075 Market Street,30096,33.957853,-84.129752,Atlanta,US,Duluth
1267,WBS Event Facility (Wild Bill's),2010719,,,30096,34.0028786,-84.1446376,Atlanta,US,Duluth
1269,Wild Bill's,295151,,,,,,Houston,US,Beaumont
1270,Wild Bill's Nostalgia Center,3098554,,1003 Newfield St,06457,41.5861655,-72.6749666,Bridgeport,US,Middletown
1271,Wild Bill's Saloon,748206,,,,,,Brownsville,US,Brownsville
1272,Wild Bill Days,375691,,Downtown Deadwood Wall St. & Main St.,,44.3779698,-103.7292083,Sturgis,US,Deadwood
1273,"Wild Bill's Steakhouse, Saloon and Dancehall",2089329,,,,,,Tucson,US,Tucson
1274,Wild Bill's Legendary Steakhouse & Saloon,957141,,1843 Village West Pkwy C121,66111,39.1259792,-94.8271027,Kansas City,US,Kansas City
1275,Wild Bill's in Nashville,1386316,,Corner of 1st and Broadway,,36.1622589,-86.7744342,Nashville,US,Nashville
1276,Wild Bill's,618026,,,,,,Atlanta,US,Atlanta
1278,Wild Bill's,1491638,,351 North Hall,,41.6659873,-91.5366758,Des Moines,US,Iowa City
1279,Wild Bill's,1528403,,503 Washington St,57031,42.8865973,-97.1725806,Sioux Falls,US,Gayville
1280,Wild Bill's Fill'n Station,1596978,,3811 SW 6th Ave,79106,35.2110009,-101.8799184,Amarillo,US,Amarillo
1281,The Old Whaling Church,261396,,89 Main St,02539,41.39059,-70.51523,Providence,US,Edgartown
1282,George's Majestic Lounge,51712,,519 West Dickson Street,72701,36.066051,-94.166507,Rogers,US,Fayetteville
1283,191 Toole,2502609,,191 E Toole Ave,85701,32.2249416,-110.9689836,Tucson,US,Tucson
1284,191 E Toole Ave,3998759,,191 East Toole Avenue,85701,32.22495,-110.96897,Tucson,US,Tucson
1285,Ace Hotel Los Angeles,4012099,,,90015,34.03901,-118.26728,Los Angeles,US,Los Angeles
1286,UPSTAIRS (Rooftop of Ace Hotel Los Angeles),2588818,,929 Broadway,90015,34.0416894,-118.2570324,Los Angeles,US,Los Angeles
1287,The Theatre at Ace Hotel,2502474,,933 S. Broadway,90015,34.0415219,-118.2568454,Los Angeles,US,Los Angeles
1288,Ace Hotel,2682593,,929 S Broadway,90015,34.04169,-118.25703,Los Angeles,US,Los Angeles
1289,Cinespia at the Theatre at Ace Hotel Downtown La,3696214,,929 Broadway,90015,34.0418769,-118.2570341,Los Angeles,US,Los Angeles
1290,Ace Hotel Rooftop,3974299,,929 S Broadway,90015,34.0418182,-118.2569208,Los Angeles,US,Los Angeles
1291,Showroom at Casino Arizona,4012739,,,85271,33.47,-111.92,Scottsdale,US,Scottsdale
1292,The Showroom at Casino Arizona at Salt River,1176806,,524 N 92nd St,85256,33.45432,-111.88564,Scottsdale,US,Scottsdale
1293,Central Florida Fairgrounds & Exposition Park,38520,,4603 W. Colonial Dr.,32802,28.55609,-81.43938,Orlando,US,Orlando
1294,Orlando Amphitheater at the Central Florida Fairgrounds,3346034,,4603 West Colonial Drive,32802,28.55492,-81.43826,Orlando,US,Orlando
1295,Central Florida Fairgrounds Warehouse,4340003,,"4603 W Colonial Dr, Orlando, FL 32808",,28.55491,-81.43824,Orlando,US,Orlando
1296,"The Pavilion, Central Florida Fairgrounds",3377889,,4603 W. Colonial Blvd.,32808,28.5549196,-81.4382606,Orlando,US,Orlando
1297,Star Of The Desert Arena at Primm Valley Resorts,4012764,,,89019,35.61234,-115.38805,Henderson,US,Primm
1298,Mac's Bar,11135,,2700 E Michigan Ave,48912,42.733158,-84.51355,Grand Rapids,US,Lansing
1300,Mac's Bad Art Bar,1532723,,1799 Brewerton Road,13211,43.093783,-76.147415,Mattydale,US,Mattydale
1301,Lilly Mac's Irish Bar & Restaurant,1892488,,187 S. Murphy Ave.,,37.3763319,-122.0304657,SF Bay Area,US,Sunnyvale
1304,Mac's Bar,3192064,,2700 E Michigan Ave,48912,42.7332119,-84.5136095,Grand Rapids,US,East Lansing
1305,Mac's Bar,1550383,,1430 2nd Ave,56001,44.1798082,-93.9942696,Twin Cities,US,Mankato
1306,Mac's Bar and Cardroom,3173259,,210 E Heron St,98520,46.97451,-123.8154441,Raymond,US,Aberdeen
1307,Daddy Mac's Bar,1437328,,2920 N. Green Valley Pkwy,89014,36.0758951,-115.0823144,Henderson,US,Henderson
1308,Paddy Mac's Bar and Grill,2615398,,4157 N Pulaski Rd,60641,41.9571351,-87.7276725,Chicago,US,Chicago
1312,Heaven at The Masquerade,1244831,,75 MLK Jr Drive SW,30303,33.75103,-84.39028,Atlanta,US,Atlanta
1313,Tacoma Dome,596,,2727 East D Street,98421,47.23634,-122.42683,Tacoma,US,Tacoma
1314,tacoma dome wallingford annex,3804009,,,,,,Seattle,US,Seattle
1315,Yakima Valley Sun Dome,3897649,,"1301 S Fair Ave,",98901,46.5891172,-120.4867758,Tacoma,US,Yakima
1316,FitzGerald's,30117,,6615 Roosevelt Road,60402,41.8651465,-87.7896859,Chicago,US,Berwyn
1317,House FitzGerald,3601039,,,,41.6763545,-86.2519898,Fort Wayne,US,South Bend
1319,FitzGerald's American Music Festival,3893899,,,,,,Chicago,US,Berwyn
1320,FitzGeraldâ€™s Nightclub (Sidebar),4338194,,6615 Roosevelt Rd,60402,41.86483,-87.78967,Chicago,US,Berwyn
1321,Valley Forge Casino Resort,2169904,,1160 1st Ave,19406,40.09518,-75.41436,Philadelphia,US,King Of Prussia
1322,Valley Forge Casino Resort Convention Centre,189018,,1160 First Ave,19406,40.096547,-75.4156639,Philadelphia,US,King Of Prussia
1323,"Waterford Ballroom, Valley Forge Casino Resort",1965799,,1160 First Avenue,19406,40.0951871,-75.4143596,Philadelphia,US,King Of Prussia
1324,Ch Mayo Presentation Hall at Mayo Civic Center,4108179,,,55904,43.95625,-92.42087,Twin Cities,US,Rochester
1325,Maymont,1284931,,1700 Hampton St,23220,37.53319,-77.47449,Richmond,US,Richmond
1326,Maymont Park,3965134,,,,,,Richmond,US,Richmond
1327,Republic,1505,,828 South Peters Street,70130,29.9440872,-90.0657445,New Orleans,US,New Orleans
1328,Republic NOLA Peters St,3939199,,828 S. Peters Street,70130,29.94405,-90.06572,New Orleans,US,New Orleans
1329,Republic New Orleans,3953084,,"828 S Peters St, New Orleans, LA 70130",70130,29.9440505,-90.0657171,New Orleans,US,New Orleans
1330,The Theater at Hard Rock Hotel & Casino,3874934,,1000 Boardwalk,08401,39.35999,-74.42124,Philadelphia,US,Atlantic City
1331,The Bomb Factory,45544,4300.0,2713 Canton St,75226,32.782367,-96.783697,Dallas - Fort Worth,US,Dallas
1332,The Bomb Factory,33318,,,,,,Denver,US,Denver
1333,Dominion Raceway and Entertainment,3500499,,,22580,38.11335,-77.40925,Washington,US,Woodford
1334,Joe's,4086864,,,60622,41.90131,-87.68277,Chicago,US,Chicago
1335,Joe's Pub,10733,,425 Lafayette Street,10003,40.7291369,-73.9920281,New York,US,New York
1336,Joe's Grotto,303221,,13825 N. 32nd St.,85032,33.6123075,-112.0124654,Phoenix,US,Phoenix
1337,Joe's on Weed St.,2643,,940 W. Weed St.,60622,41.9098156,-87.652172,Chicago,US,Chicago
1338,Coyote Joe's,7229,,4621 Wilkinson Blvd,28208,35.22871,-80.91596,Charlotte,US,Charlotte
1339,Lucky Joe's,191323,,25 Old Town Sq.,80524,40.5872754,-105.0763143,Cheyenne,US,Fort Collins
1340,Joe Louis Arena,1117,20338.0,600 Civic Center Drive,48226,42.3251899,-83.051362,Detroit,US,Detroit
1341,Joe's Live,3199418,,5441 Park Pl.,60018,41.9781604,-87.8673435,Chicago,US,Rosemont
1342,Joe's Great American Bar & Grill,31197,,4311 W. Magnolia Blvd.,91505,34.16583,-118.35368,Los Angeles,US,Burbank
1343,Liquid Joe's,51445,,1249 East 3300 South,84106,40.70037,-111.85513,Salt Lake City,US,Salt Lake City
1345,Broadway Joe's Bar & Grille,34080,,3051 Main St,14214,42.9478287,-78.8296667,Buffalo,US,Buffalo
1347,Cocomo Joe's,773286,,28244 N Tatum Blvd,85331,33.7428856,-111.9782706,Scottsdale,US,Cave Creek
1349,Joe Squared,3242989,,33 W. North Avenue,21201,39.31068,-76.61773,Baltimore,US,Baltimore
1351,Cotton Eyed Joe,531811,,11220 Outlet Dr.,37932,35.90499,-84.15415,Knoxville,US,Knoxville
1352,Hey Joe's,812031,,118 East Sunflower Rd.,38732,33.7475873,-90.7213255,Cleveland,US,Cleveland
1353,Joe Squared - Station North,123674,,133 W. North Ave.,21201,39.3108352,-76.6191241,Baltimore,US,Baltimore
1354,Espresso Joe's,46422,,50 West Front St,07735,40.4369919,-74.2037364,Keyport,US,Keyport
1357,Joe's Live - Rosemont,4012184,,,60018,41.98675,-87.87216,Chicago,US,Rosemont
1358,Sloppy Joe's Bar,755151,,201 Duval St,33040,24.5591092,-81.8051266,Key West,US,Key West
1359,Sloppy Joe's Bar,786016,,,,,,Miami,US,Miami
1360,Moe's,44299,,,,,,Seattle,US,Seattle
1362,Joe Palooka's,1029176,,3923 E 120th Ave,80233,39.9139396,-104.9416568,Huntsville,US,Thornton
1363,Loaded Joe's Coffeehouse & Lounge,660556,,"82 E. Beaver Creek Blvd., Ste. 104",81620,39.6348785,-106.5208275,Avon,US,Avon
1364,Moe Joe Coffee,2213019,,20 S. Main St.,29601,34.8501955,-82.3995019,Charlotte,US,Greenville
1365,Smokey Joe's CafÃ©,141748,,510 Briar Creek Road,28205,35.204173,-80.801286,Charlotte,US,Charlotte
1366,K-joeâ€™s Restaurant,1434083,,,,,,New Orleans,US,New Orleans
1368,Joe's Java,383816,,180 E Main St,45177,39.444815,-83.825473,Wilmington,US,Wilmington
1369,Wild Joe's Coffee,1605724,,18 W. Main St.,59715,45.6791052,-111.0378946,Billings,US,Bozeman
1370,Joeâ€™s Underground,642736,,144 8th Street,30901,33.4755381,-81.9650303,Augusta,US,Augusta
1371,Everyday Joe's Coffee House,34511,,144 S. Mason St.,80524,40.5860682,-105.0787348,Cheyenne,US,Fort Collins
1372,Stan and Joe's,3336174,,West St.,21401,38.9798799,-76.5213675,Baltimore,US,Annapolis
1373,Stan & Joe's Saloon West,600716,,37 West St.,21401,38.9782197,-76.4946899,Baltimore,US,Annapolis
1374,Joe Pop's,1862738,,2002 Long Beach Blvd.,08008,39.6425313,-74.1815179,Ship Bottom,US,Ship Bottom
1375,Buffalo Joe's,832866,,3338 NE Loop 286,75460,33.675885,-95.531014,Paris,US,Paris
1379,Average Joe's,122778,,9652 Mcpherson Rd # 1,78045,27.596169,-99.4820249,Laredo,US,Laredo
1380,Java Joe's,2579523,,,,35.110703,-106.609991,Albuquerque,US,Albuquerque
1381,Smoken' Joe's Barbeque,879901,,351 Washington St.,02135,42.3491005,-71.1528654,Boston / Cambridge,US,Brighton
1382,Johnny Joe's,778341,,5327 East Trindle Road,17050,40.216738,-76.996764,Baltimore,US,Mechanicsburg
1384,The Ritz Ybor,17725,1200.0,1503 East 7th Avenue,33675,27.96,-82.44271,Tampa,US,Tampa
1385,The Ritz Theater - Ybor City,4012069,,,33675,27.95999,-82.43996,Tampa,US,Tampa
1386,The Ritz Ybor Royal Room,3017809,,1503 E 7th Ave,33605,27.960006,-82.4427737,Tampa,US,Tampa
1387,Xcel Energy Center,624,18568,175 Kellogg Blvd. W.,55102,44.9434383,-93.1001467,Twin Cities,US,St. Paul
1388,Jacobs Pavilion at Nautica,45552,4500,2014 Sycamore St.,44113,41.496352,-81.702957,Cleveland,US,Cleveland
1389,Port City Music Hall,611581,530.0,504 Congress Street,04101,43.65642,-70.26046,Portland,US,Portland
1390,Port City Music Hall,1405763,,504 G St.,31520,31.151864,-81.495447,Jacksonville,US,Brunswick
1391,"Grand Ballroom, Nugget Casino Resort",4340798,,,89431,39.54015,-119.74839,Reno,US,Sparks
1392,Irving Theater,112635,600.0,5505 East Washington Street,46219,39.7705632,-86.0733013,Indianapolis,US,Indianapolis
1393,Second Space at the Irving Theater,2551059,,5505 E. Washington Street,46219,39.770175,-86.073142,Indianapolis,US,Indianapolis
1394,BJCC Concert Hall,18173,,2100 Richard Arrington Blvd.,35203,33.5249195,-86.8107175,Birmingham,US,Birmingham
1399,WMP Concert Hall,1116456,,31 E 28th St.,10016,40.7437681,-73.984858,New York,US,New York
1400,PAC Concert Hall,455996,,516 High Street,98225,48.7377644,-122.4867951,Seattle,US,Bellingham
1403,Oregon Zoo Amphitheatre,78137,,4001 SW Canyon Rd,97221,45.51027,-122.7157,Portland,US,Portland
1404,Smiling Moose,50846,,1306 E Carson St,15203,40.4286997,-79.9849092,Pittsburgh,US,Pittsburgh
1405,The Smiling Moose Upstairs,944766,,1306 E. Carson Street,15203,40.4286997,-79.9849092,Pittsburgh,US,Pittsburgh
1406,Smiling Moose,3979559,,10731 WI-42,53063,43.96797,-87.82163,Manitowoc,US,Manitowoc
1407,McAllen Convention Center,11412,,1300 South Tenth Street,78505,26.19137,-98.23323,Brownsville,US,McAllen
1408,"Oval Park, McAllen Convention Center",3297419,,,,26.2034071,-98.2300124,Brownsville,US,McAllen
1409,La Villa Real Entertainment & Convention Center,56704,,,78501,26.2188442,-98.2322355,Brownsville,US,McAllen
1410,Abravanel Hall,695,,123 West South Temple,84101,40.76872,-111.89514,Salt Lake City,US,Salt Lake City
1411,Revolution Concert House + Event Center,1910083,,4983 Glenwood St. Unit 4,83714,43.65071,-116.28117,Boise,US,Garden City
1412,The Pub Station,2770048,500.0,2502 1st Ave North,59101,45.78345,-108.5021,Billings,US,Billings
1414,The Filling Station Pub,2486049,,9522 Miramar Rd,92126,32.894433,-117.122898,San Diego,US,San Diego
1417,The Sub Station,3251304,500.0,116 High St,44281,41.0263035,-81.7296836,Akron,US,Wadsworth
1419,Casper Events Center,1267,,1 Events Drive,82602,42.86663,-106.31308,Cheyenne,US,Casper
1420,Casper Events Center Arena,3929004,,1 Events Dr,82601,42.8686268,-106.3329922,Casper (WY),US,Casper (WY)
1421,Sideouts Bar & Eatery,2991703,,4018 W Roberts Rd.,60042,42.271235,-88.1976595,Chicago,US,Illinois
1422,Cool Insuring Arena,1317,,1 Civic Center Plaza,12801,43.30839,-73.64296,Burlington,US,Glens Falls
1423,Boettcher Concert Hall,2949,,14th and Curtis Streets,80204,39.7453453,-104.997198,Denver,US,Denver
1424,C & J Farms,4336664,,,31510,31.53937,-82.46236,Bacon County,US,Alma
1425,Hard Rock Live Las Vegas,526376,,"3771 Las Vegas Blvd. S., Unigt 120",89109,36.104192,-115.172249,Las Vegas,US,Las Vegas
1426,"Friday Night Live, Hard Rock Hotel & Casino Las Vegas",2929048,,4455 Paradise Rd,89169,36.1100828,-115.1538714,Las Vegas,US,Las Vegas
1427,Lake Tahoe Outdoor Arena at Harvey's,31788,,18 Highway 50,89449,38.96035,-119.94292,Reno,US,Stateline
1428,The Tavern,1822238,,211 E. Santa Clara St.,93001,34.27979,-119.29739,Los Angeles,US,Ventura
1429,The Tractor Tavern,247,,5213 Ballard Avenue N.w.,98107,47.6657641,-122.382626,Seattle,US,Seattle
